"{"type": "FeatureCollection", "features": [{"type": "Feature", "geometry": {"type": "Point", "coordinates": [-80.7816231, 28.3513229]}, "properties": {"id": 1716, "county": "Brevard", "latitude": 28.3513229, "park_zip": "32926", "longitude": -80.7816231, "mh_spaces": 73, "park_city": "Cocoa", "park_name": "Cocoa MHP", "park_type": "Mobile Home Park", "rv_spaces": 0, "park_address": "444 Stowe Lane", "billing_spaces": 73, "geocode_status": "OK"}}, {"type": "Feature", "geometry": {"type": "Point", "coordinates": [-82.3590281, 28.8928084]}, "properties": {"id": 1923, "county": "Citrus", "latitude": 28.8928084, "park_zip": "34442", "longitude": -82.3590281, "mh_spaces": 24, "park_city": "Hernando", "park_name": "Croft Bay Village MHP", "park_type": "Mobile Home Park", "rv_spaces": 0, "park_address": "4517 E Lucy Court", "billing_spaces": 24, "geocode_status": "OK"}}, {"type": "Feature", "geometry": {"type": "Point", "coordinates": [-80.3247923, 26.1076336]}, "properties": {"id": 1755, "county": "Broward", "latitude": 26.1076336, "park_zip": "33325", "longitude": -80.3247923, "mh_spaces": 203, "park_city": "Davie", "park_name": "Cheron Village", "park_type": "Mobile Home Park", "rv_spaces": 0, "park_address": "13222 SW 9 Court", "billing_spaces": 203, "geocode_status": "OK"}}, {"type": "Feature", "geometry": {"type": "Point", "coordinates": [-81.442244, 26.781353]}, "properties": {"id": 2761, "county": "Hendry", "latitude": 26.781353, "park_zip": "33935", "longitude": -81.442244, "mh_spaces": 8, "park_city": "La Belle", "park_name": "Landon Park", "park_type": "Mobile Home Park", "rv_spaces": 0, "park_address": "190 Cook Avenue", "billing_spaces": 8, "geocode_status": "OK"}}, {"type": "Feature", "geometry": {"type": "Point", "coordinates": [-82.3253498, 27.9911329]}, "properties": {"id": 3030, "county": "Hillsborough", "latitude": 27.9911329, "park_zip": "33610", "longitude": -82.3253498, "mh_spaces": 13, "park_city": "Tampa", "park_name": "Fern Valley MHP", "park_type": "Mobile Home Park", "rv_spaces": 0, "park_address": "10601 Tanner Road", "billing_spaces": 13, "geocode_status": "OK"}}, {"type": "Feature", "geometry": {"type": "Point", "coordinates": [-80.2170531, 25.8470686]}, "properties": {"id": 2215, "county": "Dade", "latitude": 25.8470686, "park_zip": "33150", "longitude": -80.2170531, "mh_spaces": 114, "park_city": "Miami", "park_name": "Westland Mobile Home Park", "park_type": "Mobile Home Park", "rv_spaces": 0, "park_address": "1175 NW 79 Street", "billing_spaces": 114, "geocode_status": "OK"}}, {"type": "Feature", "geometry": {"type": "Point", "coordinates": [-82.1217002, 29.2878797]}, "properties": {"id": 4241, "county": "Marion", "latitude": 29.2878797, "park_zip": "34479", "longitude": -82.1217002, "mh_spaces": 14, "park_city": "Ocala", "park_name": "Sunset MHP", "park_type": "Mobile Home Park", "rv_spaces": 0, "park_address": "1270 NE 95th Street", "billing_spaces": 14, "geocode_status": "OK"}}, {"type": "Feature", "geometry": {"type": "Point", "coordinates": [-84.8822682, 29.7343654]}, "properties": {"id": 2603, "county": "Franklin", "latitude": 29.7343654, "park_zip": "32328", "longitude": -84.8822682, "mh_spaces": 14, "park_city": "Eastpoint", "park_name": "Bayshore Trav-L-Park", "park_type": "Mobile Home Park", "rv_spaces": 11, "park_address": "314 Patton Road", "billing_spaces": 25, "geocode_status": "OK"}}, {"type": "Feature", "geometry": {"type": "Point", "coordinates": [-82.5654982, 27.5430299]}, "properties": {"id": 3993, "county": "Manatee", "latitude": 27.5430299, "park_zip": "34221", "longitude": -82.5654982, "mh_spaces": 0, "park_city": "Palmetto", "park_name": "Lazy Oaks", "park_type": "Recreational Vehicle Park", "rv_spaces": 42, "park_address": "219 33rd Street W", "billing_spaces": 42, "geocode_status": "OK"}}, {"type": "Feature", "geometry": {"type": "Point", "coordinates": [-81.7076339, 28.0665421]}, "properties": {"id": 5531, "county": "Polk", "latitude": 28.0665421, "park_zip": "33880", "longitude": -81.7076339, "mh_spaces": 122, "park_city": "Winter Haven", "park_name": "Hidden Cove MHP", "park_type": "Mobile Home Park", "rv_spaces": 0, "park_address": "SR 544", "billing_spaces": 122, "geocode_status": "OK"}}, {"type": "Feature", "geometry": {"type": "Point", "coordinates": [-82.0096582, 29.0083669]}, "properties": {"id": 4106, "county": "Marion", "latitude": 29.0083669, "park_zip": "34491", "longitude": -82.0096582, "mh_spaces": 7, "park_city": "Summerfield", "park_name": "JPP MHP", "park_type": "Lodging Park", "rv_spaces": 0, "park_address": "8665 SE 147 Street", "billing_spaces": 7, "geocode_status": "OK"}}, {"type": "Feature", "geometry": {"type": "Point", "coordinates": [-81.572496, 30.6286951]}, "properties": {"id": 4408, "county": "Nassau", "latitude": 30.6286951, "park_zip": "32097", "longitude": -81.572496, "mh_spaces": 0, "park_city": "Yulee", "park_name": "Lofton Creek Campground", "park_type": "Recreational Vehicle Park", "rv_spaces": 36, "park_address": "463516 E SR 200", "billing_spaces": 36, "geocode_status": "OK"}}, {"type": "Feature", "geometry": {"type": "Point", "coordinates": [-82.3014239, 28.3284161]}, "properties": {"id": 4974, "county": "Pasco", "latitude": 28.3284161, "park_zip": "33576", "longitude": -82.3014239, "mh_spaces": 9, "park_city": "San Antonio", "park_name": "Kimberly Kourt", "park_type": "Mobile Home Park", "rv_spaces": 0, "park_address": "31106 Dana Drive", "billing_spaces": 9, "geocode_status": "OK"}}, {"type": "Feature", "geometry": {"type": "Point", "coordinates": [-82.4163603, 29.5990354]}, "properties": {"id": 1408, "county": "Alachua", "latitude": 29.5990354, "park_zip": "32608", "longitude": -82.4163603, "mh_spaces": 441, "park_city": "Gainesville", "park_name": "The Palms of Archer", "park_type": "Mobile Home Park", "rv_spaces": 0, "park_address": "7117 SW Archer Road", "billing_spaces": 441, "geocode_status": "OK"}}, {"type": "Feature", "geometry": {"type": "Point", "coordinates": [-82.4949685, 29.78047]}, "properties": {"id": 1409, "county": "Alachua", "latitude": 29.78047, "park_zip": "32615", "longitude": -82.4949685, "mh_spaces": 17, "park_city": "Alachua", "park_name": "Autumn Leaves Mobile Home Park", "park_type": "Mobile Home Park", "rv_spaces": 0, "park_address": "13620 NW 140th Street", "billing_spaces": 17, "geocode_status": "OK"}}, {"type": "Feature", "geometry": {"type": "Point", "coordinates": [-82.282091, 29.7007124]}, "properties": {"id": 1410, "county": "Alachua", "latitude": 29.7007124, "park_zip": "32609", "longitude": -82.282091, "mh_spaces": 185, "park_city": "Gainesville", "park_name": "Brittany Estates", "park_type": "Mobile Home Park", "rv_spaces": 0, "park_address": "5010 NE Waldo Road", "billing_spaces": 185, "geocode_status": "OK"}}, {"type": "Feature", "geometry": {"type": "Point", "coordinates": [-82.5915855, 29.8504999]}, "properties": {"id": 1411, "county": "Alachua", "latitude": 29.8504999, "park_zip": "32643", "longitude": -82.5915855, "mh_spaces": 33, "park_city": "High Springs", "park_name": "Kulaqua Youth Camp", "park_type": "Recreational Camp", "rv_spaces": 25, "park_address": "23400 NW 212th Avenue", "billing_spaces": 438, "geocode_status": "OK"}}, {"type": "Feature", "geometry": {"type": "Point", "coordinates": [-82.2799888, 29.5028441]}, "properties": {"id": 1412, "county": "Alachua", "latitude": 29.5028441, "park_zip": "32667", "longitude": -82.2799888, "mh_spaces": 8, "park_city": "Micanopy", "park_name": "Lona Connell Trailer Park", "park_type": "Mobile Home Park", "rv_spaces": 0, "park_address": "102 Connell Circle", "billing_spaces": 8, "geocode_status": "OK"}}, {"type": "Feature", "geometry": {"type": "Point", "coordinates": [-82.2952623, 29.5198326]}, "properties": {"id": 1413, "county": "Alachua", "latitude": 29.5198326, "park_zip": "32667", "longitude": -82.2952623, "mh_spaces": 0, "park_city": "Micanopy", "park_name": "Paynes Prairie State Preserve", "park_type": "Recreational Vehicle Park", "rv_spaces": 35, "park_address": "100 Savannah Boulevard", "billing_spaces": 50, "geocode_status": "OK"}}, {"type": "Feature", "geometry": {"type": "Point", "coordinates": [-82.4126341, 29.7669069]}, "properties": {"id": 1414, "county": "Alachua", "latitude": 29.7669069, "park_zip": "32653", "longitude": -82.4126341, "mh_spaces": 62, "park_city": "Gainesville", "park_name": "Progress Mobile Home Court", "park_type": "Mobile Home Park", "rv_spaces": 0, "park_address": "6101 NW 120th Lane", "billing_spaces": 62, "geocode_status": "OK"}}, {"type": "Feature", "geometry": {"type": "Point", "coordinates": [-82.167794, 29.4965347]}, "properties": {"id": 1415, "county": "Alachua", "latitude": 29.4965347, "park_zip": "32640", "longitude": -82.167794, "mh_spaces": 0, "park_city": "Hawthorne", "park_name": "Twin Lakes Fishing & Camping, LLC", "park_type": "Recreational Vehicle Park", "rv_spaces": 14, "park_address": "17105 S CR 325", "billing_spaces": 20, "geocode_status": "OK"}}, {"type": "Feature", "geometry": {"type": "Point", "coordinates": [-82.2794925, 29.5019576]}, "properties": {"id": 1416, "county": "Alachua", "latitude": 29.5019576, "park_zip": "32667", "longitude": -82.2794925, "mh_spaces": 8, "park_city": "Micanopy", "park_name": "William Connell Trailer Park", "park_type": "Mobile Home Park", "rv_spaces": 0, "park_address": "109 Conell Circle", "billing_spaces": 8, "geocode_status": "OK"}}, {"type": "Feature", "geometry": {"type": "Point", "coordinates": [-82.262197, 29.72141]}, "properties": {"id": 1417, "county": "Alachua", "latitude": 29.72141, "park_zip": "32609", "longitude": -82.262197, "mh_spaces": 9, "park_city": "Gainesville", "park_name": "Elwood Trailer Park", "park_type": "Mobile Home Park", "rv_spaces": 0, "park_address": "7330 NE Waldo Road", "billing_spaces": 9, "geocode_status": "OK"}}, {"type": "Feature", "geometry": {"type": "Point", "coordinates": [-82.5998079, 29.8211252]}, "properties": {"id": 1418, "county": "Alachua", "latitude": 29.8211252, "park_zip": "32643", "longitude": -82.5998079, "mh_spaces": 10, "park_city": "High Springs", "park_name": "Johnny's Mobile Home Park", "park_type": "Mobile Home Park", "rv_spaces": 0, "park_address": "18285 S Main Street", "billing_spaces": 10, "geocode_status": "OK"}}, {"type": "Feature", "geometry": {"type": "Point", "coordinates": [-81.5530382, 27.896613]}, "properties": {"id": 5471, "county": "Polk", "latitude": 27.896613, "park_zip": "33853", "longitude": -81.5530382, "mh_spaces": 64, "park_city": "Lake Wales", "park_name": "Chelette Manor", "park_type": "Mobile Home Park", "rv_spaces": 0, "park_address": "2300 State Road 60 E", "billing_spaces": 64, "geocode_status": "OK"}}, {"type": "Feature", "geometry": {"type": "Point", "coordinates": [-82.3973884, 29.6181151]}, "properties": {"id": 1419, "county": "Alachua", "latitude": 29.6181151, "park_zip": "32608", "longitude": -82.3973884, "mh_spaces": 347, "park_city": "Gainesville", "park_name": "Oak Park Village MHC", "park_type": "Mobile Home Park", "rv_spaces": 0, "park_address": "4000 SW 47th Street", "billing_spaces": 347, "geocode_status": "OK"}}, {"type": "Feature", "geometry": {"type": "Point", "coordinates": [-82.3743442, 29.7334064]}, "properties": {"id": 1420, "county": "Alachua", "latitude": 29.7334064, "park_zip": "32653", "longitude": -82.3743442, "mh_spaces": 206, "park_city": "Gainesville", "park_name": "Whitney", "park_type": "Mobile Home Park", "rv_spaces": 12, "park_address": "8401 NW 13th Street", "billing_spaces": 218, "geocode_status": "OK"}}, {"type": "Feature", "geometry": {"type": "Point", "coordinates": [-82.165895, 29.493447]}, "properties": {"id": 1421, "county": "Alachua", "latitude": 29.493447, "park_zip": "32640", "longitude": -82.165895, "mh_spaces": 10, "park_city": "Hawthorne", "park_name": "Cross Creek Mobile Home Park", "park_type": "Mobile Home Park", "rv_spaces": 0, "park_address": "14402 SE 174th Place", "billing_spaces": 10, "geocode_status": "OK"}}, {"type": "Feature", "geometry": {"type": "Point", "coordinates": [-82.5147467, 29.8203097]}, "properties": {"id": 1422, "county": "Alachua", "latitude": 29.8203097, "park_zip": "32615", "longitude": -82.5147467, "mh_spaces": 4, "park_city": "Alachua", "park_name": "Traveler's Campground", "park_type": "Recreational Vehicle Park", "rv_spaces": 147, "park_address": "17701 April Boulevard", "billing_spaces": 151, "geocode_status": "OK"}}, {"type": "Feature", "geometry": {"type": "Point", "coordinates": [-82.2603667, 29.6749753]}, "properties": {"id": 1423, "county": "Alachua", "latitude": 29.6749753, "park_zip": "32609", "longitude": -82.2603667, "mh_spaces": 273, "park_city": "Gainesville", "park_name": "Lamplighter MHP", "park_type": "Mobile Home Park", "rv_spaces": 0, "park_address": "5200 NE 39th Avenue", "billing_spaces": 273, "geocode_status": "OK"}}, {"type": "Feature", "geometry": {"type": "Point", "coordinates": [-82.3048264, 29.664251]}, "properties": {"id": 1424, "county": "Alachua", "latitude": 29.664251, "park_zip": "32602", "longitude": -82.3048264, "mh_spaces": 81, "park_city": "Gainesville", "park_name": "Candlelight Estates MHP", "park_type": "Mobile Home Park", "rv_spaces": 0, "park_address": "1600 NE 12th Avenue", "billing_spaces": 81, "geocode_status": "OK"}}, {"type": "Feature", "geometry": {"type": "Point", "coordinates": [-82.3402721, 29.6970762]}, "properties": {"id": 1425, "county": "Alachua", "latitude": 29.6970762, "park_zip": "32609", "longitude": -82.3402721, "mh_spaces": 39, "park_city": "Gainesville", "park_name": "Meadowbrook Estates, LLC", "park_type": "Mobile Home Park", "rv_spaces": 4, "park_address": "4546 NW 13th Street", "billing_spaces": 43, "geocode_status": "OK"}}, {"type": "Feature", "geometry": {"type": "Point", "coordinates": [-82.4135802, 29.6519362]}, "properties": {"id": 1426, "county": "Alachua", "latitude": 29.6519362, "park_zip": "32607", "longitude": -82.4135802, "mh_spaces": 463, "park_city": "Gainesville", "park_name": "Hidden Oaks", "park_type": "Mobile Home Park", "rv_spaces": 0, "park_address": "100 Castle Drive", "billing_spaces": 463, "geocode_status": "OK"}}, {"type": "Feature", "geometry": {"type": "Point", "coordinates": [-82.1685907, 29.816083]}, "properties": {"id": 1427, "county": "Alachua", "latitude": 29.816083, "park_zip": "32694", "longitude": -82.1685907, "mh_spaces": 1, "park_city": "Waldo", "park_name": "Gainesville RV Park", "park_type": "Recreational Vehicle Park", "rv_spaces": 149, "park_address": "17500 NW US Highway 301", "billing_spaces": 150, "geocode_status": "OK"}}, {"type": "Feature", "geometry": {"type": "Point", "coordinates": [-82.1031924, 29.516936]}, "properties": {"id": 1428, "county": "Alachua", "latitude": 29.516936, "park_zip": "32640", "longitude": -82.1031924, "mh_spaces": 0, "park_city": "Hawthorne", "park_name": "Lochloosa Harbor RV Park", "park_type": "Recreational Vehicle Park", "rv_spaces": 40, "park_address": "15008 SE Highway 301", "billing_spaces": 41, "geocode_status": "OK"}}, {"type": "Feature", "geometry": {"type": "Point", "coordinates": [-82.3171454, 29.5331991]}, "properties": {"id": 1429, "county": "Alachua", "latitude": 29.5331991, "park_zip": "32667", "longitude": -82.3171454, "mh_spaces": 0, "park_city": "Micanopy", "park_name": "Camp Cuscowilla", "park_type": "Recreational Camp", "rv_spaces": 0, "park_address": "210 SE 134th Avenue", "billing_spaces": 70, "geocode_status": "OK"}}, {"type": "Feature", "geometry": {"type": "Point", "coordinates": [-82.4947867, 29.7815237]}, "properties": {"id": 1430, "county": "Alachua", "latitude": 29.7815237, "park_zip": "32615", "longitude": -82.4947867, "mh_spaces": 8, "park_city": "Alachua", "park_name": "Bonner Mobile Home Park", "park_type": "Mobile Home Park", "rv_spaces": 0, "park_address": "13730 NW 140th Street", "billing_spaces": 8, "geocode_status": "OK"}}, {"type": "Feature", "geometry": {"type": "Point", "coordinates": [-82.1730628, 29.8097426]}, "properties": {"id": 1431, "county": "Alachua", "latitude": 29.8097426, "park_zip": "32694", "longitude": -82.1730628, "mh_spaces": 0, "park_city": "Waldo", "park_name": "Waldo Motorsports", "park_type": "Recreational Vehicle Park", "rv_spaces": 167, "park_address": "16258 NE US Highway 301", "billing_spaces": 167, "geocode_status": "OK"}}, {"type": "Feature", "geometry": {"type": "Point", "coordinates": [-82.607831, 29.6685373]}, "properties": {"id": 1432, "county": "Alachua", "latitude": 29.6685373, "park_zip": "32669", "longitude": -82.607831, "mh_spaces": 12, "park_city": "Newberry", "park_name": "Countryside Mobile Home Park", "park_type": "Mobile Home Park", "rv_spaces": 0, "park_address": "1528 NW State Road 45", "billing_spaces": 12, "geocode_status": "OK"}}, {"type": "Feature", "geometry": {"type": "Point", "coordinates": [-82.2603667, 29.6749753]}, "properties": {"id": 1433, "county": "Alachua", "latitude": 29.6749753, "park_zip": "32609", "longitude": -82.2603667, "mh_spaces": 273, "park_city": "Gainesville", "park_name": "Bedrock Pinewood Estates", "park_type": "Mobile Home Park", "rv_spaces": 0, "park_address": "5200 NE 39th Avenue", "billing_spaces": 273, "geocode_status": "OK"}}, {"type": "Feature", "geometry": {"type": "Point", "coordinates": [-82.4056893, 29.607968]}, "properties": {"id": 1434, "county": "Alachua", "latitude": 29.607968, "park_zip": "32608", "longitude": -82.4056893, "mh_spaces": 143, "park_city": "Gainesville", "park_name": "Bedrock Westgate Manor", "park_type": "Mobile Home Park", "rv_spaces": 0, "park_address": "5816 SW Archer Road", "billing_spaces": 143, "geocode_status": "OK"}}, {"type": "Feature", "geometry": {"type": "Point", "coordinates": [-82.3048264, 29.664251]}, "properties": {"id": 1435, "county": "Alachua", "latitude": 29.664251, "park_zip": "32601", "longitude": -82.3048264, "mh_spaces": 82, "park_city": "Gainesville", "park_name": "Bedrock Candlelight Estates", "park_type": "Mobile Home Park", "rv_spaces": 0, "park_address": "1600 NE 12th Avenue", "billing_spaces": 82, "geocode_status": "OK"}}, {"type": "Feature", "geometry": {"type": "Point", "coordinates": [-82.549266, 29.87475]}, "properties": {"id": 1436, "county": "Alachua", "latitude": 29.87475, "park_zip": "32643", "longitude": -82.549266, "mh_spaces": 0, "park_city": "High Springs", "park_name": "High Springs RV Resort & Campground", "park_type": "Recreational Vehicle Park", "rv_spaces": 48, "park_address": "24004 Old Bellamy Road", "billing_spaces": 60, "geocode_status": "OK"}}, {"type": "Feature", "geometry": {"type": "Point", "coordinates": [-82.2871374, 29.7025992]}, "properties": {"id": 1437, "county": "Alachua", "latitude": 29.7025992, "park_zip": "32609", "longitude": -82.2871374, "mh_spaces": 0, "park_city": "Gainesville", "park_name": "Santa Fe Palms RV Resort", "park_type": "Recreational Vehicle Park", "rv_spaces": 115, "park_address": "3013 NE 53rd Avenue", "billing_spaces": 115, "geocode_status": "OK"}}, {"type": "Feature", "geometry": {"type": "Point", "coordinates": [-82.1144437, 30.264311]}, "properties": {"id": 1438, "county": "Baker", "latitude": 30.264311, "park_zip": "32063", "longitude": -82.1144437, "mh_spaces": 23, "park_city": "Macclenny", "park_name": "Rhoden's Mobile Home Park", "park_type": "Mobile Home Park", "rv_spaces": 0, "park_address": "Barber Road", "billing_spaces": 23, "geocode_status": "OK"}}, {"type": "Feature", "geometry": {"type": "Point", "coordinates": [-82.1717437, 30.2736612]}, "properties": {"id": 1439, "county": "Baker", "latitude": 30.2736612, "park_zip": "32040", "longitude": -82.1717437, "mh_spaces": 5, "park_city": "Glen Saint Mary", "park_name": "Rewis Mobile Home Park", "park_type": "Mobile Home Park", "rv_spaces": 0, "park_address": "7994 US Hwy 90", "billing_spaces": 5, "geocode_status": "OK"}}, {"type": "Feature", "geometry": {"type": "Point", "coordinates": [-82.1332453, 30.2644807]}, "properties": {"id": 1440, "county": "Baker", "latitude": 30.2644807, "park_zip": "32063", "longitude": -82.1332453, "mh_spaces": 7, "park_city": "Macclenny", "park_name": "Jesseman's Rentals", "park_type": "Mobile Home Park", "rv_spaces": 0, "park_address": "9351 Clay Hole Trail", "billing_spaces": 7, "geocode_status": "OK"}}, {"type": "Feature", "geometry": {"type": "Point", "coordinates": [-82.125087, 30.2771834]}, "properties": {"id": 1441, "county": "Baker", "latitude": 30.2771834, "park_zip": "32063", "longitude": -82.125087, "mh_spaces": 10, "park_city": "Macclenny", "park_name": "BIG Mobile Home Park", "park_type": "Mobile Home Park", "rv_spaces": 0, "park_address": "410 M L King Drive", "billing_spaces": 10, "geocode_status": "OK"}}, {"type": "Feature", "geometry": {"type": "Point", "coordinates": [-82.1606688, 30.2865823]}, "properties": {"id": 1442, "county": "Baker", "latitude": 30.2865823, "park_zip": "32040", "longitude": -82.1606688, "mh_spaces": 5, "park_city": "Glen St Mary", "park_name": "Walter Davis Trailer Park", "park_type": "Mobile Home Park", "rv_spaces": 0, "park_address": "10801 Walter Davis Lane", "billing_spaces": 10, "geocode_status": "OK"}}, {"type": "Feature", "geometry": {"type": "Point", "coordinates": [-82.1563876, 30.2511558]}, "properties": {"id": 1443, "county": "Baker", "latitude": 30.2511558, "park_zip": "32063", "longitude": -82.1563876, "mh_spaces": 13, "park_city": "Macclenny", "park_name": "Woodlawn Mobile Home Park", "park_type": "Mobile Home Park", "rv_spaces": 0, "park_address": "7178 Woodlawn Road", "billing_spaces": 13, "geocode_status": "OK"}}, {"type": "Feature", "geometry": {"type": "Point", "coordinates": [-82.0687924, 30.2928747]}, "properties": {"id": 1444, "county": "Baker", "latitude": 30.2928747, "park_zip": "32063", "longitude": -82.0687924, "mh_spaces": 59, "park_city": "Macclenny", "park_name": "Oak Bluff MHP", "park_type": "Mobile Home Park", "rv_spaces": 0, "park_address": "1701 E US 90", "billing_spaces": 59, "geocode_status": "OK"}}, {"type": "Feature", "geometry": {"type": "Point", "coordinates": [-82.1707011, 30.2803624]}, "properties": {"id": 1445, "county": "Baker", "latitude": 30.2803624, "park_zip": "32040", "longitude": -82.1707011, "mh_spaces": 8, "park_city": "Glen Saint Mary", "park_name": "B.J. Mobile Home Park", "park_type": "Mobile Home Park", "rv_spaces": 0, "park_address": "7788 Klein Road", "billing_spaces": 8, "geocode_status": "OK"}}, {"type": "Feature", "geometry": {"type": "Point", "coordinates": [-85.6167656, 30.1574286]}, "properties": {"id": 1588, "county": "Bay", "latitude": 30.1574286, "park_zip": "32401", "longitude": -85.6167656, "mh_spaces": 2, "park_city": "Panama City", "park_name": "Springfield RV Park", "park_type": "Recreational Vehicle Park", "rv_spaces": 4, "park_address": "500 Powell Avenue", "billing_spaces": 6, "geocode_status": "OK"}}, {"type": "Feature", "geometry": {"type": "Point", "coordinates": [-82.1419063, 30.3323372]}, "properties": {"id": 1446, "county": "Baker", "latitude": 30.3323372, "park_zip": "32063", "longitude": -82.1419063, "mh_spaces": 32, "park_city": "Macclenny", "park_name": "Macedonia MHP", "park_type": "Mobile Home Park", "rv_spaces": 0, "park_address": "Rueben Crawford & River Hights Dr.", "billing_spaces": 32, "geocode_status": "OK"}}, {"type": "Feature", "geometry": {"type": "Point", "coordinates": [-82.2694064, 30.2785613]}, "properties": {"id": 1447, "county": "Baker", "latitude": 30.2785613, "park_zip": "32087", "longitude": -82.2694064, "mh_spaces": 10, "park_city": "Sanderson", "park_name": "Graceland MHP", "park_type": "Mobile Home Park", "rv_spaces": 0, "park_address": "CR 127 N & Rush Ln N", "billing_spaces": 10, "geocode_status": "OK"}}, {"type": "Feature", "geometry": {"type": "Point", "coordinates": [-82.1591547, 30.2866549]}, "properties": {"id": 1448, "county": "Baker", "latitude": 30.2866549, "park_zip": "32040", "longitude": -82.1591547, "mh_spaces": 6, "park_city": "Glen Saint Mary", "park_name": "Harper's Rental", "park_type": "Mobile Home Park", "rv_spaces": 0, "park_address": "Morningside Lane", "billing_spaces": 6, "geocode_status": "OK"}}, {"type": "Feature", "geometry": {"type": "Point", "coordinates": [-82.1296125, 30.2461463]}, "properties": {"id": 1449, "county": "Baker", "latitude": 30.2461463, "park_zip": "32063", "longitude": -82.1296125, "mh_spaces": 10, "park_city": "Macclenny", "park_name": "Pine Oaks MHP", "park_type": "Mobile Home Park", "rv_spaces": 2, "park_address": "9072 Pine Oaks Circle", "billing_spaces": 12, "geocode_status": "OK"}}, {"type": "Feature", "geometry": {"type": "Point", "coordinates": [-82.2728938, 30.2521786]}, "properties": {"id": 1450, "county": "Baker", "latitude": 30.2521786, "park_zip": "32087", "longitude": -82.2728938, "mh_spaces": 0, "park_city": "Sanderson", "park_name": "Taylor Church RV Park", "park_type": "Recreational Vehicle Park", "rv_spaces": 18, "park_address": "26389 C R 250", "billing_spaces": 18, "geocode_status": "OK"}}, {"type": "Feature", "geometry": {"type": "Point", "coordinates": [-82.1317967, 30.2837031]}, "properties": {"id": 1451, "county": "Baker", "latitude": 30.2837031, "park_zip": "32063", "longitude": -82.1317967, "mh_spaces": 8, "park_city": "Macclenny", "park_name": "Godwin's MHP", "park_type": "Mobile Home Park", "rv_spaces": 0, "park_address": "236 Blair Street", "billing_spaces": 8, "geocode_status": "OK"}}, {"type": "Feature", "geometry": {"type": "Point", "coordinates": [-82.156991, 30.248932]}, "properties": {"id": 1452, "county": "Baker", "latitude": 30.248932, "park_zip": "32063", "longitude": -82.156991, "mh_spaces": 12, "park_city": "Macclenny", "park_name": "Mitch Lane MHP", "park_type": "Mobile Home Park", "rv_spaces": 0, "park_address": "6963 Mitch Lane", "billing_spaces": 12, "geocode_status": "OK"}}, {"type": "Feature", "geometry": {"type": "Point", "coordinates": [-82.131188, 30.2817147]}, "properties": {"id": 1453, "county": "Baker", "latitude": 30.2817147, "park_zip": "32063", "longitude": -82.131188, "mh_spaces": 11, "park_city": "Macclenny", "park_name": "Claude's Trailer Rentals", "park_type": "Mobile Home Park", "rv_spaces": 1, "park_address": "581 W Macclenny Avenue", "billing_spaces": 12, "geocode_status": "OK"}}, {"type": "Feature", "geometry": {"type": "Point", "coordinates": [-82.1220569, 30.2821807]}, "properties": {"id": 1454, "county": "Baker", "latitude": 30.2821807, "park_zip": "32063", "longitude": -82.1220569, "mh_spaces": 23, "park_city": "Macclenny", "park_name": "North Boulevard Mobile Home Park", "park_type": "Mobile Home Park", "rv_spaces": 0, "park_address": "331 N Blvd", "billing_spaces": 23, "geocode_status": "OK"}}, {"type": "Feature", "geometry": {"type": "Point", "coordinates": [-82.1632369, 30.2697883]}, "properties": {"id": 1455, "county": "Baker", "latitude": 30.2697883, "park_zip": "32040", "longitude": -82.1632369, "mh_spaces": 6, "park_city": "Glen Saint Mary", "park_name": "Southside MHP", "park_type": "Mobile Home Park", "rv_spaces": 0, "park_address": "9612 George Taber Boulevard", "billing_spaces": 6, "geocode_status": "OK"}}, {"type": "Feature", "geometry": {"type": "Point", "coordinates": [-82.1422086, 30.2841574]}, "properties": {"id": 1456, "county": "Baker", "latitude": 30.2841574, "park_zip": "32063", "longitude": -82.1422086, "mh_spaces": 7, "park_city": "Macclenny", "park_name": "Miss Debbie's MHP", "park_type": "Mobile Home Park", "rv_spaces": 0, "park_address": "11307 N Thomas Circle", "billing_spaces": 7, "geocode_status": "OK"}}, {"type": "Feature", "geometry": {"type": "Point", "coordinates": [-82.1581673, 30.2932323]}, "properties": {"id": 1457, "county": "Baker", "latitude": 30.2932323, "park_zip": "32040", "longitude": -82.1581673, "mh_spaces": 7, "park_city": "Glen Saint Mary", "park_name": "Kozy Korners", "park_type": "Mobile Home Park", "rv_spaces": 0, "park_address": "7035 Andrala Place", "billing_spaces": 7, "geocode_status": "OK"}}, {"type": "Feature", "geometry": {"type": "Point", "coordinates": [-82.1235395, 30.2859247]}, "properties": {"id": 1458, "county": "Baker", "latitude": 30.2859247, "park_zip": "32063", "longitude": -82.1235395, "mh_spaces": 9, "park_city": "Macclenny", "park_name": "Ohio Street Park", "park_type": "Mobile Home Park", "rv_spaces": 0, "park_address": "10 W Ohio Avenue", "billing_spaces": 9, "geocode_status": "OK"}}, {"type": "Feature", "geometry": {"type": "Point", "coordinates": [-82.127404, 30.2638002]}, "properties": {"id": 1459, "county": "Baker", "latitude": 30.2638002, "park_zip": "32063", "longitude": -82.127404, "mh_spaces": 9, "park_city": "Macclenny", "park_name": "Whitney's MHP", "park_type": "Mobile Home Park", "rv_spaces": 0, "park_address": "9324 Brent Lane", "billing_spaces": 9, "geocode_status": "OK"}}, {"type": "Feature", "geometry": {"type": "Point", "coordinates": [-82.1568143, 30.2488916]}, "properties": {"id": 1460, "county": "Baker", "latitude": 30.2488916, "park_zip": "32063", "longitude": -82.1568143, "mh_spaces": 6, "park_city": "Macclenny", "park_name": "Ivey Street MHP", "park_type": "Mobile Home Park", "rv_spaces": 0, "park_address": "576 Ivey Street", "billing_spaces": 6, "geocode_status": "OK"}}, {"type": "Feature", "geometry": {"type": "Point", "coordinates": [-82.1220569, 30.2821807]}, "properties": {"id": 1461, "county": "Baker", "latitude": 30.2821807, "park_zip": "32063", "longitude": -82.1220569, "mh_spaces": 8, "park_city": "Macclenny", "park_name": "Thomas Mobile Home Park", "park_type": "Mobile Home Park", "rv_spaces": 0, "park_address": "207 N Boulevard", "billing_spaces": 8, "geocode_status": "OK"}}, {"type": "Feature", "geometry": {"type": "Point", "coordinates": [-82.1700578, 30.2623647]}, "properties": {"id": 1462, "county": "Baker", "latitude": 30.2623647, "park_zip": "32040", "longitude": -82.1700578, "mh_spaces": 0, "park_city": "Glen Saint Mary", "park_name": "Island Oaks RV Resort", "park_type": "Mobile Home Park", "rv_spaces": 343, "park_address": "9664 Nursery Boulevard", "billing_spaces": 364, "geocode_status": "OK"}}, {"type": "Feature", "geometry": {"type": "Point", "coordinates": [-82.6600814, 30.181066]}, "properties": {"id": 1463, "county": "Baker", "latitude": 30.181066, "park_zip": "32024", "longitude": -82.6600814, "mh_spaces": 6, "park_city": "Lake City", "park_name": "Kay's Mobile Home Park", "park_type": "Mobile Home Park", "rv_spaces": 0, "park_address": "US 90 & Stoddard", "billing_spaces": 6, "geocode_status": "OK"}}, {"type": "Feature", "geometry": {"type": "Point", "coordinates": [-82.1487017, 30.2521831]}, "properties": {"id": 1464, "county": "Baker", "latitude": 30.2521831, "park_zip": "32063", "longitude": -82.1487017, "mh_spaces": 5, "park_city": "Macclenny", "park_name": "Macclenny MHP", "park_type": "Mobile Home Park", "rv_spaces": 0, "park_address": "6699 Woodlawn Road", "billing_spaces": 5, "geocode_status": "OK"}}, {"type": "Feature", "geometry": {"type": "Point", "coordinates": [-82.065251, 30.354675]}, "properties": {"id": 1465, "county": "Baker", "latitude": 30.354675, "park_zip": "32063", "longitude": -82.065251, "mh_spaces": null, "park_city": "Macclenny", "park_name": "St Mary's Cove", "park_type": "Recreational Vehicle Park", "rv_spaces": null, "park_address": "1739 Steel Bridge Road", "billing_spaces": null, "geocode_status": "OK"}}, {"type": "Feature", "geometry": {"type": "Point", "coordinates": [-85.5873998, 30.1251211]}, "properties": {"id": 1466, "county": "Bay", "latitude": 30.1251211, "park_zip": "32404", "longitude": -85.5873998, "mh_spaces": 168, "park_city": "Panama City", "park_name": "Country Side Estates", "park_type": "Mobile Home Park", "rv_spaces": 0, "park_address": "1128 S Gay Avenue", "billing_spaces": 168, "geocode_status": "OK"}}, {"type": "Feature", "geometry": {"type": "Point", "coordinates": [-85.6105392, 30.1275056]}, "properties": {"id": 1467, "county": "Bay", "latitude": 30.1275056, "park_zip": "32404", "longitude": -85.6105392, "mh_spaces": 3, "park_city": "Panama City", "park_name": "Bay Oaks Park", "park_type": "Recreational Vehicle Park", "rv_spaces": 9, "park_address": "4435 Pratt Avenue", "billing_spaces": 12, "geocode_status": "OK"}}, {"type": "Feature", "geometry": {"type": "Point", "coordinates": [-85.6117141, 30.2034018]}, "properties": {"id": 1468, "county": "Bay", "latitude": 30.2034018, "park_zip": "32405", "longitude": -85.6117141, "mh_spaces": 12, "park_city": "Panama City", "park_name": "Denny's Rentals", "park_type": "Mobile Home Park", "rv_spaces": 0, "park_address": "3307 E Baldwin Road", "billing_spaces": 12, "geocode_status": "OK"}}, {"type": "Feature", "geometry": {"type": "Point", "coordinates": [-85.604332, 30.163727]}, "properties": {"id": 1469, "county": "Bay", "latitude": 30.163727, "park_zip": "32401", "longitude": -85.604332, "mh_spaces": 112, "park_city": "Panama City", "park_name": "Panama Mobile Estate", "park_type": "Mobile Home Park", "rv_spaces": 18, "park_address": "700 Transmitter Road", "billing_spaces": 130, "geocode_status": "OK"}}, {"type": "Feature", "geometry": {"type": "Point", "coordinates": [-85.604435, 30.129475]}, "properties": {"id": 1470, "county": "Bay", "latitude": 30.129475, "park_zip": "32404", "longitude": -85.604435, "mh_spaces": 20, "park_city": "Panama City", "park_name": "Bayview Mobile Home Park", "park_type": "Mobile Home Park", "rv_spaces": 0, "park_address": "920 E Park Street", "billing_spaces": 20, "geocode_status": "OK"}}, {"type": "Feature", "geometry": {"type": "Point", "coordinates": [-85.6175878, 30.1914957]}, "properties": {"id": 1471, "county": "Bay", "latitude": 30.1914957, "park_zip": "32405", "longitude": -85.6175878, "mh_spaces": 12, "park_city": "Panama City", "park_name": "Douglas Road Mobile Home Park", "park_type": "Mobile Home Park", "rv_spaces": 0, "park_address": "3027 Douglas Road", "billing_spaces": 12, "geocode_status": "OK"}}, {"type": "Feature", "geometry": {"type": "Point", "coordinates": [-85.6080777, 30.1656758]}, "properties": {"id": 1472, "county": "Bay", "latitude": 30.1656758, "park_zip": "32401", "longitude": -85.6080777, "mh_spaces": 7, "park_city": "Panama City", "park_name": "Bryant's Mobile Home Park", "park_type": "Mobile Home Park", "rv_spaces": 0, "park_address": "821 Transmitter Road", "billing_spaces": 7, "geocode_status": "OK"}}, {"type": "Feature", "geometry": {"type": "Point", "coordinates": [-85.6181839, 30.2301607]}, "properties": {"id": 1473, "county": "Bay", "latitude": 30.2301607, "park_zip": "32405", "longitude": -85.6181839, "mh_spaces": 24, "park_city": "Panama City", "park_name": "North Bay Mobile Home Living", "park_type": "Mobile Home Park", "rv_spaces": 0, "park_address": "4512 Carla Lane", "billing_spaces": 24, "geocode_status": "OK"}}, {"type": "Feature", "geometry": {"type": "Point", "coordinates": [-85.6424132, 30.1926319]}, "properties": {"id": 1474, "county": "Bay", "latitude": 30.1926319, "park_zip": "32405", "longitude": -85.6424132, "mh_spaces": 5, "park_city": "Panama City", "park_name": "Two Sisters Park P-24", "park_type": "Mobile Home Park", "rv_spaces": 0, "park_address": "1009 E 24th Plaza", "billing_spaces": 5, "geocode_status": "OK"}}, {"type": "Feature", "geometry": {"type": "Point", "coordinates": [-85.7153968, 30.1837426]}, "properties": {"id": 1475, "county": "Bay", "latitude": 30.1837426, "park_zip": "32405", "longitude": -85.7153968, "mh_spaces": 29, "park_city": "Panama City", "park_name": "Anchorage Mobile Home Park", "park_type": "Mobile Home Park", "rv_spaces": 6, "park_address": "4200 W 19th Street", "billing_spaces": 35, "geocode_status": "OK"}}, {"type": "Feature", "geometry": {"type": "Point", "coordinates": [-85.5771138, 30.1447392]}, "properties": {"id": 1476, "county": "Bay", "latitude": 30.1447392, "park_zip": "32404", "longitude": -85.5771138, "mh_spaces": 8, "park_city": "Panama City", "park_name": "Cherry Street Mobile Home Park", "park_type": "Mobile Home Park", "rv_spaces": 0, "park_address": "6600 Cherry Street", "billing_spaces": 8, "geocode_status": "OK"}}, {"type": "Feature", "geometry": {"type": "Point", "coordinates": [-85.6783989, 30.1759818]}, "properties": {"id": 1477, "county": "Bay", "latitude": 30.1759818, "park_zip": "32405", "longitude": -85.6783989, "mh_spaces": 9, "park_city": "Panama City", "park_name": "Gulf Breeze Trailer Park", "park_type": "Mobile Home Park", "rv_spaces": 18, "park_address": "1532 June Avenue", "billing_spaces": 27, "geocode_status": "OK"}}, {"type": "Feature", "geometry": {"type": "Point", "coordinates": [-85.8603833, 30.2073098]}, "properties": {"id": 1478, "county": "Bay", "latitude": 30.2073098, "park_zip": "32413", "longitude": -85.8603833, "mh_spaces": 98, "park_city": "Panama City Beach", "park_name": "Reid's Court LLC", "park_type": "Mobile Home Park", "rv_spaces": 41, "park_address": "14806 Front Beach Road", "billing_spaces": 139, "geocode_status": "OK"}}, {"type": "Feature", "geometry": {"type": "Point", "coordinates": [-85.755976, 30.2017364]}, "properties": {"id": 1479, "county": "Bay", "latitude": 30.2017364, "park_zip": "32407", "longitude": -85.755976, "mh_spaces": 64, "park_city": "Panama City Beach", "park_name": "Bayside Mobile Home Park", "park_type": "Mobile Home Park", "rv_spaces": 0, "park_address": "7104 Big Daddy Drive", "billing_spaces": 64, "geocode_status": "OK"}}, {"type": "Feature", "geometry": {"type": "Point", "coordinates": [-85.5853588, 30.15001]}, "properties": {"id": 1480, "county": "Bay", "latitude": 30.15001, "park_zip": "32404", "longitude": -85.5853588, "mh_spaces": 31, "park_city": "Panama City", "park_name": "Carriage Way", "park_type": "Mobile Home Park", "rv_spaces": 0, "park_address": "6000 Harvey Street", "billing_spaces": 31, "geocode_status": "OK"}}, {"type": "Feature", "geometry": {"type": "Point", "coordinates": [-85.7099515, 30.1945905]}, "properties": {"id": 1481, "county": "Bay", "latitude": 30.1945905, "park_zip": "32405", "longitude": -85.7099515, "mh_spaces": 15, "park_city": "Panama City", "park_name": "Ashland Mobile Home Park", "park_type": "Mobile Home Park", "rv_spaces": 1, "park_address": "2507 Drummond Avenue", "billing_spaces": 16, "geocode_status": "OK"}}, {"type": "Feature", "geometry": {"type": "Point", "coordinates": [-85.6562596, 30.2956926]}, "properties": {"id": 1482, "county": "Bay", "latitude": 30.2956926, "park_zip": "32409", "longitude": -85.6562596, "mh_spaces": 14, "park_city": "Southport", "park_name": "Southern Oaks Drive M.H.P.", "park_type": "Mobile Home Park", "rv_spaces": 0, "park_address": "8026 Southern Oaks Drive", "billing_spaces": 14, "geocode_status": "OK"}}, {"type": "Feature", "geometry": {"type": "Point", "coordinates": [-85.6684187, 30.1669419]}, "properties": {"id": 1483, "county": "Bay", "latitude": 30.1669419, "park_zip": "32401", "longitude": -85.6684187, "mh_spaces": 62, "park_city": "Panama City", "park_name": "Circle J Trailer Park", "park_type": "Mobile Home Park", "rv_spaces": 0, "park_address": "607 W 11th Street", "billing_spaces": 62, "geocode_status": "OK"}}, {"type": "Feature", "geometry": {"type": "Point", "coordinates": [-85.6020256, 30.1102231]}, "properties": {"id": 1484, "county": "Bay", "latitude": 30.1102231, "park_zip": "32404", "longitude": -85.6020256, "mh_spaces": 8, "park_city": "Panama City", "park_name": "Swan Villa", "park_type": "Mobile Home Park", "rv_spaces": 0, "park_address": "6401 Oakshore Drive", "billing_spaces": 8, "geocode_status": "OK"}}, {"type": "Feature", "geometry": {"type": "Point", "coordinates": [-85.7887176, 30.1760157]}, "properties": {"id": 1485, "county": "Bay", "latitude": 30.1760157, "park_zip": "32408", "longitude": -85.7887176, "mh_spaces": 18, "park_city": "Panama City Beach", "park_name": "Hala Point Mobile Home Park", "park_type": "Mobile Home Park", "rv_spaces": 0, "park_address": "2406 Joan Avenue", "billing_spaces": 18, "geocode_status": "OK"}}, {"type": "Feature", "geometry": {"type": "Point", "coordinates": [-85.6307562, 30.1814177]}, "properties": {"id": 1486, "county": "Bay", "latitude": 30.1814177, "park_zip": "32405", "longitude": -85.6307562, "mh_spaces": 118, "park_city": "Panama City", "park_name": "Sherman Pines Mobile Home Park", "park_type": "Mobile Home Park", "rv_spaces": 0, "park_address": "1940 Sherman Avenue", "billing_spaces": 118, "geocode_status": "OK"}}, {"type": "Feature", "geometry": {"type": "Point", "coordinates": [-85.4088377, 29.9426873]}, "properties": {"id": 1487, "county": "Bay", "latitude": 29.9426873, "park_zip": "32410", "longitude": -85.4088377, "mh_spaces": 1, "park_city": "Mexico Beach", "park_name": "El Governor RV Park", "park_type": "Recreational Vehicle Park", "rv_spaces": 66, "park_address": "1700 Highway 98", "billing_spaces": 67, "geocode_status": "OK"}}, {"type": "Feature", "geometry": {"type": "Point", "coordinates": [-85.5706392, 30.1449921]}, "properties": {"id": 1488, "county": "Bay", "latitude": 30.1449921, "park_zip": "32404", "longitude": -85.5706392, "mh_spaces": 17, "park_city": "Panama City", "park_name": "Busy Bee", "park_type": "Mobile Home Park", "rv_spaces": 0, "park_address": "7100 Cherry Street", "billing_spaces": 17, "geocode_status": "OK"}}, {"type": "Feature", "geometry": {"type": "Point", "coordinates": [-85.6814035, 30.1992243]}, "properties": {"id": 1489, "county": "Bay", "latitude": 30.1992243, "park_zip": "32405", "longitude": -85.6814035, "mh_spaces": 14, "park_city": "Panama City", "park_name": "Palm Circle Mobile Home Park", "park_type": "Mobile Home Park", "rv_spaces": 0, "park_address": "1334 St Andrews Boulevard", "billing_spaces": 14, "geocode_status": "OK"}}, {"type": "Feature", "geometry": {"type": "Point", "coordinates": [-85.609306, 30.1320394]}, "properties": {"id": 1490, "county": "Bay", "latitude": 30.1320394, "park_zip": "32404", "longitude": -85.609306, "mh_spaces": 27, "park_city": "Panama City", "park_name": "Winkle Rentals", "park_type": "Mobile Home Park", "rv_spaces": 0, "park_address": "4535 E Highway 98", "billing_spaces": 27, "geocode_status": "OK"}}, {"type": "Feature", "geometry": {"type": "Point", "coordinates": [-85.6160469, 30.1905165]}, "properties": {"id": 1491, "county": "Bay", "latitude": 30.1905165, "park_zip": "32405", "longitude": -85.6160469, "mh_spaces": 40, "park_city": "Panama City", "park_name": "Douglas Rd Mobile Home Park (Cox)", "park_type": "Mobile Home Park", "rv_spaces": 0, "park_address": "2318 S Dale Avenue", "billing_spaces": 40, "geocode_status": "OK"}}, {"type": "Feature", "geometry": {"type": "Point", "coordinates": [-85.6088164, 30.1716375]}, "properties": {"id": 1492, "county": "Bay", "latitude": 30.1716375, "park_zip": "32401", "longitude": -85.6088164, "mh_spaces": 15, "park_city": "Panama City", "park_name": "Southern Living Courtyard", "park_type": "Mobile Home Park", "rv_spaces": 0, "park_address": "1305 E Transmitter Road", "billing_spaces": 15, "geocode_status": "OK"}}, {"type": "Feature", "geometry": {"type": "Point", "coordinates": [-85.6227333, 30.2844545]}, "properties": {"id": 1493, "county": "Bay", "latitude": 30.2844545, "park_zip": "32409", "longitude": -85.6227333, "mh_spaces": 15, "park_city": "Southport", "park_name": "Deer Haven Park", "park_type": "Recreational Vehicle Park", "rv_spaces": 24, "park_address": "2812 County Road 2321", "billing_spaces": 39, "geocode_status": "OK"}}, {"type": "Feature", "geometry": {"type": "Point", "coordinates": [-85.7908593, 30.1708172]}, "properties": {"id": 1494, "county": "Bay", "latitude": 30.1708172, "park_zip": "32408", "longitude": -85.7908593, "mh_spaces": 74, "park_city": "Panama City Beach", "park_name": "Camper's Inn  Inc.", "park_type": "Recreational Vehicle Park", "rv_spaces": 115, "park_address": "8800 Thomas Drive", "billing_spaces": 196, "geocode_status": "OK"}}, {"type": "Feature", "geometry": {"type": "Point", "coordinates": [-85.5981275, 30.1602714]}, "properties": {"id": 1495, "county": "Bay", "latitude": 30.1602714, "park_zip": "32404", "longitude": -85.5981275, "mh_spaces": 11, "park_city": "Panama City", "park_name": "Sappy Lane Mobile Home Park", "park_type": "Mobile Home Park", "rv_spaces": 0, "park_address": "5100 E 7th Street", "billing_spaces": 11, "geocode_status": "OK"}}, {"type": "Feature", "geometry": {"type": "Point", "coordinates": [-85.4067034, 30.523223]}, "properties": {"id": 1496, "county": "Bay", "latitude": 30.523223, "park_zip": "32438", "longitude": -85.4067034, "mh_spaces": 0, "park_city": "Fountain", "park_name": "Pine Lake RV Park", "park_type": "Recreational Vehicle Park", "rv_spaces": 83, "park_address": "21036 N Hwy 231", "billing_spaces": 83, "geocode_status": "OK"}}, {"type": "Feature", "geometry": {"type": "Point", "coordinates": [-85.6243541, 30.1815699]}, "properties": {"id": 1497, "county": "Bay", "latitude": 30.1815699, "park_zip": "32405", "longitude": -85.6243541, "mh_spaces": 67, "park_city": "Panama City", "park_name": "Cedar Grove MHP", "park_type": "Mobile Home Park", "rv_spaces": 0, "park_address": "1834 N East Avenue", "billing_spaces": 67, "geocode_status": "OK"}}, {"type": "Feature", "geometry": {"type": "Point", "coordinates": [-85.5983467, 30.1162698]}, "properties": {"id": 1498, "county": "Bay", "latitude": 30.1162698, "park_zip": "32404", "longitude": -85.5983467, "mh_spaces": 0, "park_city": "Panama City", "park_name": "Nautical Point RV Park Limited, LLC", "park_type": "Recreational Vehicle Park", "rv_spaces": 55, "park_address": "317 Blackshear Drive", "billing_spaces": 55, "geocode_status": "OK"}}, {"type": "Feature", "geometry": {"type": "Point", "coordinates": [-85.5750582, 30.1274654]}, "properties": {"id": 1499, "county": "Bay", "latitude": 30.1274654, "park_zip": "32404", "longitude": -85.5750582, "mh_spaces": 16, "park_city": "Panama City", "park_name": "By Bay Mobile Home Park", "park_type": "Mobile Home Park", "rv_spaces": 0, "park_address": "1038 S Berthe Avenue", "billing_spaces": 16, "geocode_status": "OK"}}, {"type": "Feature", "geometry": {"type": "Point", "coordinates": [-85.629827, 30.180334]}, "properties": {"id": 1500, "county": "Bay", "latitude": 30.180334, "park_zip": "32405", "longitude": -85.629827, "mh_spaces": 56, "park_city": "Panama City", "park_name": "Spring Mobile Home Park", "park_type": "Mobile Home Park", "rv_spaces": 0, "park_address": "1709 Chaucer Lane", "billing_spaces": 56, "geocode_status": "OK"}}, {"type": "Feature", "geometry": {"type": "Point", "coordinates": [-85.7832944, 30.177169]}, "properties": {"id": 1501, "county": "Bay", "latitude": 30.177169, "park_zip": "32408", "longitude": -85.7832944, "mh_spaces": 5, "park_city": "Panama City", "park_name": "Hunter Mobile Home Park", "park_type": "Mobile Home Park", "rv_spaces": 0, "park_address": "2408 & 2412 Dorothy Avenue", "billing_spaces": 5, "geocode_status": "OK"}}, {"type": "Feature", "geometry": {"type": "Point", "coordinates": [-85.5883526, 30.3204573]}, "properties": {"id": 1502, "county": "Bay", "latitude": 30.3204573, "park_zip": "32409", "longitude": -85.5883526, "mh_spaces": 2, "park_city": "Panama City", "park_name": "Tharp's Camp Cedar", "park_type": "Recreational Vehicle Park", "rv_spaces": 9, "park_address": "4405 Huckleberry Lane", "billing_spaces": 13, "geocode_status": "OK"}}, {"type": "Feature", "geometry": {"type": "Point", "coordinates": [-85.6214474, 30.1558591]}, "properties": {"id": 1503, "county": "Bay", "latitude": 30.1558591, "park_zip": "32401", "longitude": -85.6214474, "mh_spaces": 23, "park_city": "Panama City", "park_name": "Mill Village MHP", "park_type": "Mobile Home Park", "rv_spaces": 0, "park_address": "2952 E Highway 98", "billing_spaces": 23, "geocode_status": "OK"}}, {"type": "Feature", "geometry": {"type": "Point", "coordinates": [-85.614596, 30.3172315]}, "properties": {"id": 1504, "county": "Bay", "latitude": 30.3172315, "park_zip": "32409", "longitude": -85.614596, "mh_spaces": 11, "park_city": "Southport", "park_name": "Kingswood Mobile Home Park", "park_type": "Mobile Home Park", "rv_spaces": 0, "park_address": "9219 Kingswood Road", "billing_spaces": 11, "geocode_status": "OK"}}, {"type": "Feature", "geometry": {"type": "Point", "coordinates": [-85.8288987, 30.1949757]}, "properties": {"id": 1505, "county": "Bay", "latitude": 30.1949757, "park_zip": "32407", "longitude": -85.8288987, "mh_spaces": 0, "park_city": "Panama City Beach", "park_name": "Raccoon River", "park_type": "Recreational Vehicle Park", "rv_spaces": 150, "park_address": "12209 Hutchison  Boulevard", "billing_spaces": 180, "geocode_status": "OK"}}, {"type": "Feature", "geometry": {"type": "Point", "coordinates": [-85.6237629, 30.1804463]}, "properties": {"id": 1506, "county": "Bay", "latitude": 30.1804463, "park_zip": "32405", "longitude": -85.6237629, "mh_spaces": 24, "park_city": "Panama City", "park_name": "Cornerstone Mobile Home Park", "park_type": "Mobile Home Park", "rv_spaces": 0, "park_address": "1800 N East Avenue", "billing_spaces": 24, "geocode_status": "OK"}}, {"type": "Feature", "geometry": {"type": "Point", "coordinates": [-85.7657634, 30.3317386]}, "properties": {"id": 1507, "county": "Bay", "latitude": 30.3317386, "park_zip": "32409", "longitude": -85.7657634, "mh_spaces": 9, "park_city": "Southport", "park_name": "Russell O Voyles & Co Rovac", "park_type": "Mobile Home Park", "rv_spaces": 0, "park_address": "4113 Voyles Road", "billing_spaces": 9, "geocode_status": "OK"}}, {"type": "Feature", "geometry": {"type": "Point", "coordinates": [-85.6524784, 30.2903306]}, "properties": {"id": 1508, "county": "Bay", "latitude": 30.2903306, "park_zip": "32409", "longitude": -85.6524784, "mh_spaces": 20, "park_city": "Southport", "park_name": "Willow Wood Mobile Home Park", "park_type": "Mobile Home Park", "rv_spaces": 5, "park_address": "2522 Highway 2321", "billing_spaces": 25, "geocode_status": "OK"}}, {"type": "Feature", "geometry": {"type": "Point", "coordinates": [-85.6653781, 30.1800638]}, "properties": {"id": 1509, "county": "Bay", "latitude": 30.1800638, "park_zip": "32405", "longitude": -85.6653781, "mh_spaces": 12, "park_city": "Panama City", "park_name": "Sunshine Villa", "park_type": "Mobile Home Park", "rv_spaces": 0, "park_address": "409 Airport Road", "billing_spaces": 12, "geocode_status": "OK"}}, {"type": "Feature", "geometry": {"type": "Point", "coordinates": [-85.7316591, 30.1329607]}, "properties": {"id": 1510, "county": "Bay", "latitude": 30.1329607, "park_zip": "32408", "longitude": -85.7316591, "mh_spaces": 0, "park_city": "Panama City Beach", "park_name": "St. Andrews State Park", "park_type": "Recreational Vehicle Park", "rv_spaces": 154, "park_address": "4607 State Park Lane", "billing_spaces": 159, "geocode_status": "OK"}}, {"type": "Feature", "geometry": {"type": "Point", "coordinates": [-85.713, 30.1955361]}, "properties": {"id": 1511, "county": "Bay", "latitude": 30.1955361, "park_zip": "32405", "longitude": -85.713, "mh_spaces": 10, "park_city": "Panama City", "park_name": "Flamingo Park", "park_type": "Mobile Home Park", "rv_spaces": 0, "park_address": "2607 Grant Avenue", "billing_spaces": 10, "geocode_status": "OK"}}, {"type": "Feature", "geometry": {"type": "Point", "coordinates": [-85.5972506, 30.1492884]}, "properties": {"id": 1512, "county": "Bay", "latitude": 30.1492884, "park_zip": "32404", "longitude": -85.5972506, "mh_spaces": 8, "park_city": "Panama City", "park_name": "Tall Pines Villa", "park_type": "Mobile Home Park", "rv_spaces": 0, "park_address": "198-212 Sims Avenue", "billing_spaces": 8, "geocode_status": "OK"}}, {"type": "Feature", "geometry": {"type": "Point", "coordinates": [-85.7803399, 30.1745207]}, "properties": {"id": 1513, "county": "Bay", "latitude": 30.1745207, "park_zip": "32408", "longitude": -85.7803399, "mh_spaces": 15, "park_city": "Panama City Beach", "park_name": "King's Mobile Homes", "park_type": "Mobile Home Park", "rv_spaces": 0, "park_address": "8517 Terrell Street", "billing_spaces": 15, "geocode_status": "OK"}}, {"type": "Feature", "geometry": {"type": "Point", "coordinates": [-85.6469288, 30.2210645]}, "properties": {"id": 1514, "county": "Bay", "latitude": 30.2210645, "park_zip": "32444", "longitude": -85.6469288, "mh_spaces": 30, "park_city": "Lynn Haven", "park_name": "Angie's Rentals", "park_type": "Mobile Home Park", "rv_spaces": 0, "park_address": "300 E 25th Street", "billing_spaces": 30, "geocode_status": "OK"}}, {"type": "Feature", "geometry": {"type": "Point", "coordinates": [-85.5683288, 30.1562826]}, "properties": {"id": 1515, "county": "Bay", "latitude": 30.1562826, "park_zip": "32404", "longitude": -85.5683288, "mh_spaces": 14, "park_city": "Panama City", "park_name": "The Oaks", "park_type": "Mobile Home Park", "rv_spaces": 0, "park_address": "7200 Nebraska Street", "billing_spaces": 14, "geocode_status": "OK"}}, {"type": "Feature", "geometry": {"type": "Point", "coordinates": [-85.5737017, 30.1435348]}, "properties": {"id": 1516, "county": "Bay", "latitude": 30.1435348, "park_zip": "32404", "longitude": -85.5737017, "mh_spaces": 10, "park_city": "Panama City", "park_name": "Patterson Mobile Home Park", "park_type": "Mobile Home Park", "rv_spaces": 0, "park_address": "6819 Letohatchee Street", "billing_spaces": 10, "geocode_status": "OK"}}, {"type": "Feature", "geometry": {"type": "Point", "coordinates": [-85.6379753, 30.2737456]}, "properties": {"id": 1517, "county": "Bay", "latitude": 30.2737456, "park_zip": "32409", "longitude": -85.6379753, "mh_spaces": 8, "park_city": "Southport", "park_name": "Applewood Park", "park_type": "Mobile Home Park", "rv_spaces": 0, "park_address": "6740 Sunburst Lane", "billing_spaces": 8, "geocode_status": "OK"}}, {"type": "Feature", "geometry": {"type": "Point", "coordinates": [-85.7843265, 30.1778235]}, "properties": {"id": 1518, "county": "Bay", "latitude": 30.1778235, "park_zip": "32408", "longitude": -85.7843265, "mh_spaces": 11, "park_city": "Panama City Beach", "park_name": "Leisure Pines", "park_type": "Mobile Home Park", "rv_spaces": 0, "park_address": "2401 Dorothy Avenue", "billing_spaces": 11, "geocode_status": "OK"}}, {"type": "Feature", "geometry": {"type": "Point", "coordinates": [-85.5986578, 30.1673027]}, "properties": {"id": 1519, "county": "Bay", "latitude": 30.1673027, "park_zip": "32404", "longitude": -85.5986578, "mh_spaces": 0, "park_city": "Panama City", "park_name": "Armstrong's", "park_type": "Recreational Vehicle Park", "rv_spaces": 9, "park_address": "5008 E 11th Street", "billing_spaces": 9, "geocode_status": "OK"}}, {"type": "Feature", "geometry": {"type": "Point", "coordinates": [-85.5959662, 30.2292198]}, "properties": {"id": 1520, "county": "Bay", "latitude": 30.2292198, "park_zip": "32404", "longitude": -85.5959662, "mh_spaces": 24, "park_city": "Panama City", "park_name": "Cato Road Mobile Home Park", "park_type": "Mobile Home Park", "rv_spaces": 0, "park_address": "4443 Cato Road", "billing_spaces": 24, "geocode_status": "OK"}}, {"type": "Feature", "geometry": {"type": "Point", "coordinates": [-85.5661808, 30.1465719]}, "properties": {"id": 1521, "county": "Bay", "latitude": 30.1465719, "park_zip": "32404", "longitude": -85.5661808, "mh_spaces": 7, "park_city": "Panama City", "park_name": "Dykes Star Rentals", "park_type": "Mobile Home Park", "rv_spaces": 0, "park_address": "127 N Star Avenue", "billing_spaces": 7, "geocode_status": "OK"}}, {"type": "Feature", "geometry": {"type": "Point", "coordinates": [-85.5927339, 30.2317922]}, "properties": {"id": 1522, "county": "Bay", "latitude": 30.2317922, "park_zip": "32404", "longitude": -85.5927339, "mh_spaces": 14, "park_city": "Panama City", "park_name": "Mill Bayou Mobile Home Park", "park_type": "Recreational Vehicle Park", "rv_spaces": 30, "park_address": "4200 E Hwy 390", "billing_spaces": 44, "geocode_status": "OK"}}, {"type": "Feature", "geometry": {"type": "Point", "coordinates": [-85.582111, 30.148554]}, "properties": {"id": 1523, "county": "Bay", "latitude": 30.148554, "park_zip": "32404", "longitude": -85.582111, "mh_spaces": 11, "park_city": "Panama City", "park_name": "Cypress Mobile Home Park", "park_type": "Mobile Home Park", "rv_spaces": 0, "park_address": "180 Kimbrel Avenue", "billing_spaces": 11, "geocode_status": "OK"}}, {"type": "Feature", "geometry": {"type": "Point", "coordinates": [-85.535604, 30.274815]}, "properties": {"id": 1524, "county": "Bay", "latitude": 30.274815, "park_zip": "32404", "longitude": -85.535604, "mh_spaces": 12, "park_city": "Panama City", "park_name": "Waterford Bay MHP", "park_type": "Mobile Home Park", "rv_spaces": 0, "park_address": "6906 Penny Road", "billing_spaces": 12, "geocode_status": "OK"}}, {"type": "Feature", "geometry": {"type": "Point", "coordinates": [-85.468626, 30.452863]}, "properties": {"id": 1525, "county": "Bay", "latitude": 30.452863, "park_zip": "32466", "longitude": -85.468626, "mh_spaces": 0, "park_city": "Youngstown", "park_name": "Bay Bares (LSN  Inc.) 4", "park_type": "Recreational Vehicle Park", "rv_spaces": 21, "park_address": "16717 Inwoods Drive", "billing_spaces": 26, "geocode_status": "OK"}}, {"type": "Feature", "geometry": {"type": "Point", "coordinates": [-85.5292272, 30.2784233]}, "properties": {"id": 1526, "county": "Bay", "latitude": 30.2784233, "park_zip": "32404", "longitude": -85.5292272, "mh_spaces": 8, "park_city": "Panama City", "park_name": "Heindel Property", "park_type": "Mobile Home Park", "rv_spaces": 0, "park_address": "7129 Collins Road", "billing_spaces": 8, "geocode_status": "OK"}}, {"type": "Feature", "geometry": {"type": "Point", "coordinates": [-85.7483985, 30.1383088]}, "properties": {"id": 1527, "county": "Bay", "latitude": 30.1383088, "park_zip": "32408", "longitude": -85.7483985, "mh_spaces": 0, "park_city": "Panama City Beach", "park_name": "Panama City Beach R.V. Resort", "park_type": "Recreational Vehicle Park", "rv_spaces": 69, "park_address": "4702 Thomas Drive", "billing_spaces": 69, "geocode_status": "OK"}}, {"type": "Feature", "geometry": {"type": "Point", "coordinates": [-85.7848833, 30.1801822]}, "properties": {"id": 1528, "county": "Bay", "latitude": 30.1801822, "park_zip": "32408", "longitude": -85.7848833, "mh_spaces": 5, "park_city": "Panama City Beach", "park_name": "Southern Living Villa", "park_type": "Mobile Home Park", "rv_spaces": 0, "park_address": "2126 Anne Avenue", "billing_spaces": 5, "geocode_status": "OK"}}, {"type": "Feature", "geometry": {"type": "Point", "coordinates": [-85.6088355, 30.1584383]}, "properties": {"id": 1529, "county": "Bay", "latitude": 30.1584383, "park_zip": "32401", "longitude": -85.6088355, "mh_spaces": 8, "park_city": "Panama City", "park_name": "Scott Trailer Park", "park_type": "Mobile Home Park", "rv_spaces": 0, "park_address": "3806 E 6th Street", "billing_spaces": 8, "geocode_status": "OK"}}, {"type": "Feature", "geometry": {"type": "Point", "coordinates": [-85.609224, 30.165333]}, "properties": {"id": 1530, "county": "Bay", "latitude": 30.165333, "park_zip": "32404", "longitude": -85.609224, "mh_spaces": 5, "park_city": "Panama City", "park_name": "Tanglewood MHP", "park_type": "Mobile Home Park", "rv_spaces": 0, "park_address": "3806 E 9th Street", "billing_spaces": 5, "geocode_status": "OK"}}, {"type": "Feature", "geometry": {"type": "Point", "coordinates": [-85.6018302, 30.2078539]}, "properties": {"id": 1531, "county": "Bay", "latitude": 30.2078539, "park_zip": "32404", "longitude": -85.6018302, "mh_spaces": 5, "park_city": "Panama City", "park_name": "Rice Pad-Dee Mobile Home Park", "park_type": "Mobile Home Park", "rv_spaces": 0, "park_address": "4521/4527 E Bus 98", "billing_spaces": 5, "geocode_status": "OK"}}, {"type": "Feature", "geometry": {"type": "Point", "coordinates": [-85.6602058, 30.1588129]}, "properties": {"id": 1532, "county": "Bay", "latitude": 30.1588129, "park_zip": "32404", "longitude": -85.6602058, "mh_spaces": 8, "park_city": "Panama City", "park_name": "Trench Mobile Home Park", "park_type": "Mobile Home Park", "rv_spaces": 0, "park_address": "11131 Seaman Lane", "billing_spaces": 8, "geocode_status": "OK"}}, {"type": "Feature", "geometry": {"type": "Point", "coordinates": [-85.5936399, 30.2320044]}, "properties": {"id": 1533, "county": "Bay", "latitude": 30.2320044, "park_zip": "32404", "longitude": -85.5936399, "mh_spaces": 0, "park_city": "Panama City", "park_name": "Mill Bayou MH & RV Park II", "park_type": "Recreational Vehicle Park", "rv_spaces": 28, "park_address": "4130 E Hwy 390", "billing_spaces": 28, "geocode_status": "OK"}}, {"type": "Feature", "geometry": {"type": "Point", "coordinates": [-85.5847227, 30.1559237]}, "properties": {"id": 1534, "county": "Bay", "latitude": 30.1559237, "park_zip": "32404", "longitude": -85.5847227, "mh_spaces": 18, "park_city": "Panama City", "park_name": "Landever Mobile Home Park", "park_type": "Mobile Home Park", "rv_spaces": 0, "park_address": "6011 Roche Court", "billing_spaces": 18, "geocode_status": "OK"}}, {"type": "Feature", "geometry": {"type": "Point", "coordinates": [-85.79171, 30.1811419]}, "properties": {"id": 1535, "county": "Bay", "latitude": 30.1811419, "park_zip": "32407", "longitude": -85.79171, "mh_spaces": 0, "park_city": "Panama City Beach", "park_name": "Front Beach RV Park and Motel", "park_type": "Recreational Vehicle Park", "rv_spaces": 59, "park_address": "9322 Front Beach Road", "billing_spaces": 59, "geocode_status": "OK"}}, {"type": "Feature", "geometry": {"type": "Point", "coordinates": [-85.5824768, 30.1494057]}, "properties": {"id": 1536, "county": "Bay", "latitude": 30.1494057, "park_zip": "32404", "longitude": -85.5824768, "mh_spaces": 6, "park_city": "Panama City", "park_name": "Dykes Lois Rentals", "park_type": "Mobile Home Park", "rv_spaces": 0, "park_address": "6201 Lois Street", "billing_spaces": 6, "geocode_status": "OK"}}, {"type": "Feature", "geometry": {"type": "Point", "coordinates": [-85.7821317, 30.1803063]}, "properties": {"id": 1537, "county": "Bay", "latitude": 30.1803063, "park_zip": "32408", "longitude": -85.7821317, "mh_spaces": 6, "park_city": "Panama City Beach", "park_name": "Hunter's Crossing", "park_type": "Mobile Home Park", "rv_spaces": 0, "park_address": "2309 Laurie Avenue", "billing_spaces": 6, "geocode_status": "OK"}}, {"type": "Feature", "geometry": {"type": "Point", "coordinates": [-85.5931209, 30.1321257]}, "properties": {"id": 1538, "county": "Bay", "latitude": 30.1321257, "park_zip": "32404", "longitude": -85.5931209, "mh_spaces": 20, "park_city": "Panama City", "park_name": "Pecan Grove Mobile Home Park", "park_type": "Mobile Home Park", "rv_spaces": 0, "park_address": "5425 Boatrace Road", "billing_spaces": 20, "geocode_status": "OK"}}, {"type": "Feature", "geometry": {"type": "Point", "coordinates": [-85.7087903, 30.1944087]}, "properties": {"id": 1539, "county": "Bay", "latitude": 30.1944087, "park_zip": "32401", "longitude": -85.7087903, "mh_spaces": 15, "park_city": "Panama City", "park_name": "Michigan Avenue Mobile Home Park", "park_type": "Mobile Home Park", "rv_spaces": 0, "park_address": "2521 Michigan Avenue", "billing_spaces": 15, "geocode_status": "OK"}}, {"type": "Feature", "geometry": {"type": "Point", "coordinates": [-85.7867545, 30.1835695]}, "properties": {"id": 1540, "county": "Bay", "latitude": 30.1835695, "park_zip": "32407", "longitude": -85.7867545, "mh_spaces": 44, "park_city": "Panama City Beach", "park_name": "Sun Outdoors Panama City Beach", "park_type": "Recreational Vehicle Park", "rv_spaces": 165, "park_address": "1957 Allison Avenue", "billing_spaces": 209, "geocode_status": "OK"}}, {"type": "Feature", "geometry": {"type": "Point", "coordinates": [-85.7922004, 30.1856476]}, "properties": {"id": 1541, "county": "Bay", "latitude": 30.1856476, "park_zip": "32407", "longitude": -85.7922004, "mh_spaces": 32, "park_city": "Panama City Beach", "park_name": "Southern Palm Mobile Homes", "park_type": "Mobile Home Park", "rv_spaces": 0, "park_address": "9405 Sonya Circle", "billing_spaces": 32, "geocode_status": "OK"}}, {"type": "Feature", "geometry": {"type": "Point", "coordinates": [-85.6431658, 30.2703226]}, "properties": {"id": 1542, "county": "Bay", "latitude": 30.2703226, "park_zip": "32409", "longitude": -85.6431658, "mh_spaces": 8, "park_city": "Panama City", "park_name": "Fort Apache Mobile Home Park", "park_type": "Mobile Home Park", "rv_spaces": 0, "park_address": "6600 Tillman Road", "billing_spaces": 8, "geocode_status": "OK"}}, {"type": "Feature", "geometry": {"type": "Point", "coordinates": [-85.5823569, 30.1499924]}, "properties": {"id": 1543, "county": "Bay", "latitude": 30.1499924, "park_zip": "32404", "longitude": -85.5823569, "mh_spaces": 13, "park_city": "Panama City", "park_name": "Kimbrel Mobile Village", "park_type": "Mobile Home Park", "rv_spaces": 0, "park_address": "218 N Kimbrel Avenue, Lot 4", "billing_spaces": 13, "geocode_status": "OK"}}, {"type": "Feature", "geometry": {"type": "Point", "coordinates": [-85.5758584, 30.1456091]}, "properties": {"id": 1544, "county": "Bay", "latitude": 30.1456091, "park_zip": "32404", "longitude": -85.5758584, "mh_spaces": 7, "park_city": "Panama City", "park_name": "Callaway Heights MHP", "park_type": "Mobile Home Park", "rv_spaces": 1, "park_address": "6703 Cherry Street", "billing_spaces": 8, "geocode_status": "OK"}}, {"type": "Feature", "geometry": {"type": "Point", "coordinates": [-85.5737921, 30.1555315]}, "properties": {"id": 1545, "county": "Bay", "latitude": 30.1555315, "park_zip": "32404", "longitude": -85.5737921, "mh_spaces": 12, "park_city": "Panama City", "park_name": "Berthe Estates MHP", "park_type": "Mobile Home Park", "rv_spaces": 0, "park_address": "420 N Berthe Avenue", "billing_spaces": 12, "geocode_status": "OK"}}, {"type": "Feature", "geometry": {"type": "Point", "coordinates": [-85.6257063, 30.1959144]}, "properties": {"id": 1546, "county": "Bay", "latitude": 30.1959144, "park_zip": "32405", "longitude": -85.6257063, "mh_spaces": 3, "park_city": "Panama City", "park_name": "Headland Avenue Mobile Home Park", "park_type": "Mobile Home Park", "rv_spaces": 3, "park_address": "2618 Headland Avenue", "billing_spaces": 6, "geocode_status": "OK"}}, {"type": "Feature", "geometry": {"type": "Point", "coordinates": [-85.5970452, 30.1478256]}, "properties": {"id": 1547, "county": "Bay", "latitude": 30.1478256, "park_zip": "32404", "longitude": -85.5970452, "mh_spaces": 12, "park_city": "Panama City", "park_name": "DonLe", "park_type": "Mobile Home Park", "rv_spaces": 0, "park_address": "150 Sims Avenue", "billing_spaces": 12, "geocode_status": "OK"}}, {"type": "Feature", "geometry": {"type": "Point", "coordinates": [-85.6168052, 30.1973229]}, "properties": {"id": 1548, "county": "Bay", "latitude": 30.1973229, "park_zip": "32405", "longitude": -85.6168052, "mh_spaces": 10, "park_city": "Panama City", "park_name": "Dennis and Dianna Tuttle", "park_type": "Mobile Home Park", "rv_spaces": 0, "park_address": "2711 Ormond Avenue", "billing_spaces": 10, "geocode_status": "OK"}}, {"type": "Feature", "geometry": {"type": "Point", "coordinates": [-85.5874173, 30.14475]}, "properties": {"id": 1549, "county": "Bay", "latitude": 30.14475, "park_zip": "32404", "longitude": -85.5874173, "mh_spaces": 10, "park_city": "Panama City", "park_name": "Cherry Park Investment Group LLC", "park_type": "Mobile Home Park", "rv_spaces": 0, "park_address": "5824 Cherry Street", "billing_spaces": 10, "geocode_status": "OK"}}, {"type": "Feature", "geometry": {"type": "Point", "coordinates": [-85.5238507, 30.1379391]}, "properties": {"id": 1550, "county": "Bay", "latitude": 30.1379391, "park_zip": "32404", "longitude": -85.5238507, "mh_spaces": 12, "park_city": "Panama City", "park_name": "Pybus MHP", "park_type": "Mobile Home Park", "rv_spaces": 0, "park_address": "11005 Old Bicycle Road", "billing_spaces": 12, "geocode_status": "OK"}}, {"type": "Feature", "geometry": {"type": "Point", "coordinates": [-85.6007207, 30.1521908]}, "properties": {"id": 1551, "county": "Bay", "latitude": 30.1521908, "park_zip": "32404", "longitude": -85.6007207, "mh_spaces": 7, "park_city": "Panama City", "park_name": "4905 Alameda Street", "park_type": "Mobile Home Park", "rv_spaces": 0, "park_address": "4905 Alameda Street", "billing_spaces": 7, "geocode_status": "OK"}}, {"type": "Feature", "geometry": {"type": "Point", "coordinates": [-85.5983603, 30.1497907]}, "properties": {"id": 1552, "county": "Bay", "latitude": 30.1497907, "park_zip": "32404", "longitude": -85.5983603, "mh_spaces": 41, "park_city": "Panama City", "park_name": "Bayside Estates", "park_type": "Mobile Home Park", "rv_spaces": 0, "park_address": "208 N Highway 22-A", "billing_spaces": 41, "geocode_status": "OK"}}, {"type": "Feature", "geometry": {"type": "Point", "coordinates": [-85.5992413, 30.1600193]}, "properties": {"id": 1553, "county": "Bay", "latitude": 30.1600193, "park_zip": "32404", "longitude": -85.5992413, "mh_spaces": 5, "park_city": "Panama City", "park_name": "Plantation Mobile Home Park 2", "park_type": "Mobile Home Park", "rv_spaces": 0, "park_address": "628 N Highway 22-A", "billing_spaces": 5, "geocode_status": "OK"}}, {"type": "Feature", "geometry": {"type": "Point", "coordinates": [-85.596949, 30.173405]}, "properties": {"id": 1554, "county": "Bay", "latitude": 30.173405, "park_zip": "32404", "longitude": -85.596949, "mh_spaces": 19, "park_city": "Panama City", "park_name": "Shannon Willow", "park_type": "Recreational Vehicle Park", "rv_spaces": 22, "park_address": "5115 E 14th Street", "billing_spaces": 41, "geocode_status": "OK"}}, {"type": "Feature", "geometry": {"type": "Point", "coordinates": [-85.5958256, 30.1247294]}, "properties": {"id": 1555, "county": "Bay", "latitude": 30.1247294, "park_zip": "32404", "longitude": -85.5958256, "mh_spaces": 10, "park_city": "Panama City", "park_name": "Brock's Mobile Home Park", "park_type": "Mobile Home Park", "rv_spaces": 0, "park_address": "1212 Ethlyn Road", "billing_spaces": 10, "geocode_status": "OK"}}, {"type": "Feature", "geometry": {"type": "Point", "coordinates": [-85.6124572, 30.1613679]}, "properties": {"id": 1556, "county": "Bay", "latitude": 30.1613679, "park_zip": "32401", "longitude": -85.6124572, "mh_spaces": 6, "park_city": "Panama City", "park_name": "Helen Ave RV Park", "park_type": "Mobile Home Park", "rv_spaces": 5, "park_address": "720 Helen Avenue", "billing_spaces": 11, "geocode_status": "OK"}}, {"type": "Feature", "geometry": {"type": "Point", "coordinates": [-85.6673426, 30.1732982]}, "properties": {"id": 1557, "county": "Bay", "latitude": 30.1732982, "park_zip": "32401", "longitude": -85.6673426, "mh_spaces": 10, "park_city": "Panama City", "park_name": "Azalea Coach Estates", "park_type": "Mobile Home Park", "rv_spaces": 0, "park_address": "611 W 14th", "billing_spaces": 10, "geocode_status": "OK"}}, {"type": "Feature", "geometry": {"type": "Point", "coordinates": [-85.6086548, 30.1733682]}, "properties": {"id": 1558, "county": "Bay", "latitude": 30.1733682, "park_zip": "32401", "longitude": -85.6086548, "mh_spaces": 15, "park_city": "Panama City", "park_name": "South Park Mobile Home & RV Residences", "park_type": "Mobile Home Park", "rv_spaces": 7, "park_address": "1401 Transmitter Road", "billing_spaces": 22, "geocode_status": "OK"}}, {"type": "Feature", "geometry": {"type": "Point", "coordinates": [-85.5925508, 30.1223236]}, "properties": {"id": 1559, "county": "Bay", "latitude": 30.1223236, "park_zip": "32404", "longitude": -85.5925508, "mh_spaces": 0, "park_city": "Panama City", "park_name": "Smuggler's Group LLC   GO", "park_type": "Mobile Home Park", "rv_spaces": 36, "park_address": "5612 E Highway 98", "billing_spaces": 36, "geocode_status": "OK"}}, {"type": "Feature", "geometry": {"type": "Point", "coordinates": [-85.5925508, 30.1223236]}, "properties": {"id": 1560, "county": "Bay", "latitude": 30.1223236, "park_zip": "32404", "longitude": -85.5925508, "mh_spaces": 15, "park_city": "Panama City", "park_name": "Smuggler's Group LLC   SC", "park_type": "Mobile Home Park", "rv_spaces": 1, "park_address": "5612 E Highway 98", "billing_spaces": 16, "geocode_status": "OK"}}, {"type": "Feature", "geometry": {"type": "Point", "coordinates": [-85.6200381, 30.1585931]}, "properties": {"id": 1561, "county": "Bay", "latitude": 30.1585931, "park_zip": "32401", "longitude": -85.6200381, "mh_spaces": 99, "park_city": "Panama City", "park_name": "Isle of View", "park_type": "Mobile Home Park", "rv_spaces": 0, "park_address": "518 Everitt Avenue", "billing_spaces": 99, "geocode_status": "OK"}}, {"type": "Feature", "geometry": {"type": "Point", "coordinates": [-85.7936329, 30.1824304]}, "properties": {"id": 1562, "county": "Bay", "latitude": 30.1824304, "park_zip": "32407", "longitude": -85.7936329, "mh_spaces": 16, "park_city": "Panama City Beach", "park_name": "Rustic Beach Mobile Park", "park_type": "Mobile Home Park", "rv_spaces": 10, "park_address": "9502 Clarence Street", "billing_spaces": 26, "geocode_status": "OK"}}, {"type": "Feature", "geometry": {"type": "Point", "coordinates": [-85.783057, 30.19046]}, "properties": {"id": 1563, "county": "Bay", "latitude": 30.19046, "park_zip": "32407", "longitude": -85.783057, "mh_spaces": 0, "park_city": "Panama City Beach", "park_name": "Panama City Beach KOA", "park_type": "Recreational Vehicle Park", "rv_spaces": 102, "park_address": "9010 Panama City Beach Parkway", "billing_spaces": 106, "geocode_status": "OK"}}, {"type": "Feature", "geometry": {"type": "Point", "coordinates": [-85.3917701, 29.9393851]}, "properties": {"id": 1564, "county": "Bay", "latitude": 29.9393851, "park_zip": "32410", "longitude": -85.3917701, "mh_spaces": 20, "park_city": "Mexico Beach", "park_name": "Southern Sands", "park_type": "Mobile Home Park", "rv_spaces": 0, "park_address": "601 15th Street", "billing_spaces": 20, "geocode_status": "OK"}}, {"type": "Feature", "geometry": {"type": "Point", "coordinates": [-85.398872, 29.94482]}, "properties": {"id": 1565, "county": "Bay", "latitude": 29.94482, "park_zip": "32410", "longitude": -85.398872, "mh_spaces": 25, "park_city": "Mexico Beach", "park_name": "Mexico Beach RV Resort", "park_type": "Recreational Vehicle Park", "rv_spaces": 87, "park_address": "800 N 15th Street", "billing_spaces": 112, "geocode_status": "OK"}}, {"type": "Feature", "geometry": {"type": "Point", "coordinates": [-85.6783803, 30.1725628]}, "properties": {"id": 1566, "county": "Bay", "latitude": 30.1725628, "park_zip": "32401", "longitude": -85.6783803, "mh_spaces": 82, "park_city": "Panama City", "park_name": "Buena Vista Estates MHC", "park_type": "Mobile Home Park", "rv_spaces": 0, "park_address": "1320 Buena Vista Boulevard", "billing_spaces": 82, "geocode_status": "OK"}}, {"type": "Feature", "geometry": {"type": "Point", "coordinates": [-85.6176284, 30.1561721]}, "properties": {"id": 1567, "county": "Bay", "latitude": 30.1561721, "park_zip": "32401", "longitude": -85.6176284, "mh_spaces": 86, "park_city": "Panama City", "park_name": "Bay Oaks Village I", "park_type": "Mobile Home Park", "rv_spaces": 0, "park_address": "409 School Avenue", "billing_spaces": 86, "geocode_status": "OK"}}, {"type": "Feature", "geometry": {"type": "Point", "coordinates": [-85.5814696, 30.1558638]}, "properties": {"id": 1568, "county": "Bay", "latitude": 30.1558638, "park_zip": "32401", "longitude": -85.5814696, "mh_spaces": 34, "park_city": "Panama City", "park_name": "Bay Oaks Village II", "park_type": "Mobile Home Park", "rv_spaces": 0, "park_address": "420 Kimbrel Avenue", "billing_spaces": 34, "geocode_status": "OK"}}, {"type": "Feature", "geometry": {"type": "Point", "coordinates": [-85.6423029, 30.192076]}, "properties": {"id": 1569, "county": "Bay", "latitude": 30.192076, "park_zip": "32405", "longitude": -85.6423029, "mh_spaces": 15, "park_city": "Panama City", "park_name": "Moore's Mobile Home and RV Park", "park_type": "Mobile Home Park", "rv_spaces": 8, "park_address": "1026 E 24th Plaza", "billing_spaces": 23, "geocode_status": "OK"}}, {"type": "Feature", "geometry": {"type": "Point", "coordinates": [-85.5923722, 30.2253533]}, "properties": {"id": 1570, "county": "Bay", "latitude": 30.2253533, "park_zip": "32405", "longitude": -85.5923722, "mh_spaces": 8, "park_city": "Panama City", "park_name": "Trailer Park Royalty", "park_type": "Mobile Home Park", "rv_spaces": 2, "park_address": "4220 Brannon Road", "billing_spaces": 10, "geocode_status": "OK"}}, {"type": "Feature", "geometry": {"type": "Point", "coordinates": [-85.6366598, 30.1548151]}, "properties": {"id": 1571, "county": "Bay", "latitude": 30.1548151, "park_zip": "32401", "longitude": -85.6366598, "mh_spaces": 0, "park_city": "Panama City", "park_name": "Emerald Harbor Marina", "park_type": "Recreational Vehicle Park", "rv_spaces": 7, "park_address": "407 Maple Avenue", "billing_spaces": 7, "geocode_status": "OK"}}, {"type": "Feature", "geometry": {"type": "Point", "coordinates": [-85.823364, 30.204932]}, "properties": {"id": 1572, "county": "Bay", "latitude": 30.204932, "park_zip": "32407", "longitude": -85.823364, "mh_spaces": 0, "park_city": "Panama City Beach", "park_name": "Pineglen RV Park", "park_type": "Recreational Vehicle Park", "rv_spaces": 60, "park_address": "11930 Panama City Beach Parkway", "billing_spaces": 60, "geocode_status": "OK"}}, {"type": "Feature", "geometry": {"type": "Point", "coordinates": [-85.6038608, 30.1123]}, "properties": {"id": 1573, "county": "Bay", "latitude": 30.1123, "park_zip": "32404", "longitude": -85.6038608, "mh_spaces": 13, "park_city": "Panama City", "park_name": "D and D Holdings of Panama City Beach FL, LLC", "park_type": "Mobile Home Park", "rv_spaces": 0, "park_address": "43 W Cooper Drive", "billing_spaces": 13, "geocode_status": "OK"}}, {"type": "Feature", "geometry": {"type": "Point", "coordinates": [-85.6007288, 30.1330801]}, "properties": {"id": 1574, "county": "Bay", "latitude": 30.1330801, "park_zip": "32404", "longitude": -85.6007288, "mh_spaces": 42, "park_city": "Panama City", "park_name": "Oak Grove Mobile Home Park", "park_type": "Mobile Home Park", "rv_spaces": 0, "park_address": "750 S Highway 22A", "billing_spaces": 42, "geocode_status": "OK"}}, {"type": "Feature", "geometry": {"type": "Point", "coordinates": [-85.561158, 30.1509443]}, "properties": {"id": 1575, "county": "Bay", "latitude": 30.1509443, "park_zip": "32404", "longitude": -85.561158, "mh_spaces": 55, "park_city": "Panama City", "park_name": "Palm Haven Estates", "park_type": "Mobile Home Park", "rv_spaces": 0, "park_address": "250 Nelle Street", "billing_spaces": 55, "geocode_status": "OK"}}, {"type": "Feature", "geometry": {"type": "Point", "coordinates": [-85.598622, 30.166469]}, "properties": {"id": 1576, "county": "Bay", "latitude": 30.166469, "park_zip": "32404", "longitude": -85.598622, "mh_spaces": 9, "park_city": "Panama City", "park_name": "1016 BLR", "park_type": "Mobile Home Park", "rv_spaces": 0, "park_address": "1016 Bob Little  Road", "billing_spaces": 9, "geocode_status": "OK"}}, {"type": "Feature", "geometry": {"type": "Point", "coordinates": [-85.4214889, 30.437564]}, "properties": {"id": 1577, "county": "Bay", "latitude": 30.437564, "park_zip": "32438", "longitude": -85.4214889, "mh_spaces": 0, "park_city": "Fountain", "park_name": "Fountain RV and Campground", "park_type": "Recreational Vehicle Park", "rv_spaces": 33, "park_address": "12255 Highway 20 E", "billing_spaces": 33, "geocode_status": "OK"}}, {"type": "Feature", "geometry": {"type": "Point", "coordinates": [-85.6186203, 30.2297589]}, "properties": {"id": 1578, "county": "Bay", "latitude": 30.2297589, "park_zip": "32405", "longitude": -85.6186203, "mh_spaces": 24, "park_city": "Panama City", "park_name": "Emerald Coast Estates", "park_type": "Mobile Home Park", "rv_spaces": 0, "park_address": "4502 Carla Lane", "billing_spaces": 24, "geocode_status": "OK"}}, {"type": "Feature", "geometry": {"type": "Point", "coordinates": [-85.7828563, 30.1798662]}, "properties": {"id": 1579, "county": "Bay", "latitude": 30.1798662, "park_zip": "32408", "longitude": -85.7828563, "mh_spaces": 12, "park_city": "Panama City Beach", "park_name": "Under the Pines", "park_type": "Mobile Home Park", "rv_spaces": 1, "park_address": "2316 Laurie Avenue", "billing_spaces": 13, "geocode_status": "OK"}}, {"type": "Feature", "geometry": {"type": "Point", "coordinates": [-85.5983467, 30.1688527]}, "properties": {"id": 1580, "county": "Bay", "latitude": 30.1688527, "park_zip": "32404", "longitude": -85.5983467, "mh_spaces": 17, "park_city": "Panama City", "park_name": "Panama City Moblie Home Park LLC", "park_type": "Mobile Home Park", "rv_spaces": 5, "park_address": "5102 E 12th Street", "billing_spaces": 22, "geocode_status": "OK"}}, {"type": "Feature", "geometry": {"type": "Point", "coordinates": [-85.6470697, 30.2746466]}, "properties": {"id": 1581, "county": "Bay", "latitude": 30.2746466, "park_zip": "32409", "longitude": -85.6470697, "mh_spaces": 10, "park_city": "Southport", "park_name": "Buchanan Mobile Home Park", "park_type": "Mobile Home Park", "rv_spaces": 0, "park_address": "1628 Buchanan Street", "billing_spaces": 10, "geocode_status": "OK"}}, {"type": "Feature", "geometry": {"type": "Point", "coordinates": [-85.6240741, 30.1767548]}, "properties": {"id": 1582, "county": "Bay", "latitude": 30.1767548, "park_zip": "32405", "longitude": -85.6240741, "mh_spaces": 16, "park_city": "Panama City", "park_name": "James Avenue", "park_type": "Mobile Home Park", "rv_spaces": 0, "park_address": "1537 James Avenue N", "billing_spaces": 16, "geocode_status": "OK"}}, {"type": "Feature", "geometry": {"type": "Point", "coordinates": [-85.6080587, 30.1724291]}, "properties": {"id": 1583, "county": "Bay", "latitude": 30.1724291, "park_zip": "32405", "longitude": -85.6080587, "mh_spaces": 9, "park_city": "Panama City", "park_name": "C & C Mobile Park", "park_type": "Mobile Home Park", "rv_spaces": 0, "park_address": "1329 Transmitter Road", "billing_spaces": 9, "geocode_status": "OK"}}, {"type": "Feature", "geometry": {"type": "Point", "coordinates": [-85.5558121, 30.2414319]}, "properties": {"id": 1584, "county": "Bay", "latitude": 30.2414319, "park_zip": "32404", "longitude": -85.5558121, "mh_spaces": 22, "park_city": "Panama City", "park_name": "Nadine Court MHP", "park_type": "Mobile Home Park", "rv_spaces": 0, "park_address": "5921 Nadine Road", "billing_spaces": 22, "geocode_status": "OK"}}, {"type": "Feature", "geometry": {"type": "Point", "coordinates": [-85.5978956, 30.147905]}, "properties": {"id": 1585, "county": "Bay", "latitude": 30.147905, "park_zip": "32404", "longitude": -85.5978956, "mh_spaces": 29, "park_city": "Panama City", "park_name": "Springway Park", "park_type": "Mobile Home Park", "rv_spaces": 0, "park_address": "149 Sims Avenue", "billing_spaces": 29, "geocode_status": "OK"}}, {"type": "Feature", "geometry": {"type": "Point", "coordinates": [-85.7826692, 30.1757226]}, "properties": {"id": 1586, "county": "Bay", "latitude": 30.1757226, "park_zip": "32408", "longitude": -85.7826692, "mh_spaces": 6, "park_city": "Panama City Beach", "park_name": "Laurie Avenue Mobile Home Park", "park_type": "Mobile Home Park", "rv_spaces": 0, "park_address": "2628 Laurie Avenue", "billing_spaces": 6, "geocode_status": "OK"}}, {"type": "Feature", "geometry": {"type": "Point", "coordinates": [-85.5289267, 30.2773286]}, "properties": {"id": 1587, "county": "Bay", "latitude": 30.2773286, "park_zip": "32404", "longitude": -85.5289267, "mh_spaces": 10, "park_city": "Panama City", "park_name": "7105 Collins Rd", "park_type": "Mobile Home Park", "rv_spaces": 0, "park_address": "7105 Collins Road", "billing_spaces": 10, "geocode_status": "OK"}}, {"type": "Feature", "geometry": {"type": "Point", "coordinates": [-85.6444505, 30.2047713]}, "properties": {"id": 1589, "county": "Bay", "latitude": 30.2047713, "park_zip": "32405", "longitude": -85.6444505, "mh_spaces": 82, "park_city": "Panama City", "park_name": "Cottage Grove Mobile Home Park", "park_type": "Mobile Home Park", "rv_spaces": 4, "park_address": "3120 Minnesota Avenue", "billing_spaces": 86, "geocode_status": "OK"}}, {"type": "Feature", "geometry": {"type": "Point", "coordinates": [-82.0580002, 29.8126803]}, "properties": {"id": 1590, "county": "Bradford", "latitude": 29.8126803, "park_zip": "32091", "longitude": -82.0580002, "mh_spaces": 0, "park_city": "Starke", "park_name": "Camp Keystone-Salvation Army", "park_type": "Recreational Camp", "rv_spaces": 10, "park_address": "6581 SE 9th Avenue", "billing_spaces": 176, "geocode_status": "OK"}}, {"type": "Feature", "geometry": {"type": "Point", "coordinates": [-82.1058982, 29.9629054]}, "properties": {"id": 1591, "county": "Bradford", "latitude": 29.9629054, "park_zip": "32091", "longitude": -82.1058982, "mh_spaces": 3, "park_city": "Starke", "park_name": "Bradford Campground", "park_type": "Recreational Vehicle Park", "rv_spaces": 28, "park_address": "1757 N Temple Avenue", "billing_spaces": 31, "geocode_status": "OK"}}, {"type": "Feature", "geometry": {"type": "Point", "coordinates": [-82.1342384, 29.9037101]}, "properties": {"id": 1592, "county": "Bradford", "latitude": 29.9037101, "park_zip": "32091", "longitude": -82.1342384, "mh_spaces": 14, "park_city": "Starke", "park_name": "Brown's Trailer Park", "park_type": "Mobile Home Park", "rv_spaces": 0, "park_address": "13325 US 301 S", "billing_spaces": 14, "geocode_status": "OK"}}, {"type": "Feature", "geometry": {"type": "Point", "coordinates": [-82.076783, 29.925544]}, "properties": {"id": 1593, "county": "Bradford", "latitude": 29.925544, "park_zip": "32091", "longitude": -82.076783, "mh_spaces": 8, "park_city": "Starke", "park_name": "E.Zee's Mobile Home Park", "park_type": "Mobile Home Park", "rv_spaces": 0, "park_address": "14338 SE 19th Lane", "billing_spaces": 8, "geocode_status": "OK"}}, {"type": "Feature", "geometry": {"type": "Point", "coordinates": [-82.1285569, 29.9950085]}, "properties": {"id": 1594, "county": "Bradford", "latitude": 29.9950085, "park_zip": "32091", "longitude": -82.1285569, "mh_spaces": 50, "park_city": "Starke", "park_name": "Paradise Valley Community", "park_type": "Mobile Home Park", "rv_spaces": 0, "park_address": "19327 NW 51st Avenue", "billing_spaces": 50, "geocode_status": "OK"}}, {"type": "Feature", "geometry": {"type": "Point", "coordinates": [-82.1168593, 29.9440727]}, "properties": {"id": 1595, "county": "Bradford", "latitude": 29.9440727, "park_zip": "32091", "longitude": -82.1168593, "mh_spaces": 22, "park_city": "Starke", "park_name": "Westmoreland Mobile Home Park", "park_type": "Mobile Home Park", "rv_spaces": 0, "park_address": "254 S Westmorland Street", "billing_spaces": 22, "geocode_status": "OK"}}, {"type": "Feature", "geometry": {"type": "Point", "coordinates": [-82.0477146, 29.8261764]}, "properties": {"id": 1596, "county": "Bradford", "latitude": 29.8261764, "park_zip": "32091", "longitude": -82.0477146, "mh_spaces": 0, "park_city": "Starke", "park_name": "Montgomery Conference Center-Camp Montgomery", "park_type": "Recreational Camp", "rv_spaces": 7, "park_address": "88 SE 75th Avenue", "billing_spaces": 90, "geocode_status": "OK"}}, {"type": "Feature", "geometry": {"type": "Point", "coordinates": [-82.1576228, 29.8506006]}, "properties": {"id": 1597, "county": "Bradford", "latitude": 29.8506006, "park_zip": "32091", "longitude": -82.1576228, "mh_spaces": 0, "park_city": "Starke", "park_name": "Whispering Pines RV Park", "park_type": "Recreational Vehicle Park", "rv_spaces": 11, "park_address": "13228 US Hwy 301 S", "billing_spaces": 11, "geocode_status": "OK"}}, {"type": "Feature", "geometry": {"type": "Point", "coordinates": [-82.1168651, 29.8752394]}, "properties": {"id": 1598, "county": "Bradford", "latitude": 29.8752394, "park_zip": "32091", "longitude": -82.1168651, "mh_spaces": 16, "park_city": "Starke", "park_name": "Parker Place", "park_type": "Lodging Park", "rv_spaces": 0, "park_address": "4343 SE 109th Street", "billing_spaces": 16, "geocode_status": "OK"}}, {"type": "Feature", "geometry": {"type": "Point", "coordinates": [-82.1098275, 29.9441298]}, "properties": {"id": 1599, "county": "Bradford", "latitude": 29.9441298, "park_zip": "32091", "longitude": -82.1098275, "mh_spaces": 5, "park_city": "Starke", "park_name": "Polo Park", "park_type": "Lodging Park", "rv_spaces": 0, "park_address": "14945 CR 100A", "billing_spaces": 5, "geocode_status": "OK"}}, {"type": "Feature", "geometry": {"type": "Point", "coordinates": [-82.1363052, 29.9748088]}, "properties": {"id": 1600, "county": "Bradford", "latitude": 29.9748088, "park_zip": "32091", "longitude": -82.1363052, "mh_spaces": 9, "park_city": "Starke", "park_name": "L&M Mobile Homes  LLC", "park_type": "Lodging Park", "rv_spaces": 0, "park_address": "NW 177th Street", "billing_spaces": 9, "geocode_status": "OK"}}, {"type": "Feature", "geometry": {"type": "Point", "coordinates": [-82.049044, 29.9564882]}, "properties": {"id": 1601, "county": "Bradford", "latitude": 29.9564882, "park_zip": "32091", "longitude": -82.049044, "mh_spaces": 10, "park_city": "Starke", "park_name": "Raiford Mobile Home Park", "park_type": "Lodging Park", "rv_spaces": 0, "park_address": "NW SR 16 & 225", "billing_spaces": 10, "geocode_status": "OK"}}, {"type": "Feature", "geometry": {"type": "Point", "coordinates": [-82.1230725, 29.9748089]}, "properties": {"id": 1602, "county": "Bradford", "latitude": 29.9748089, "park_zip": "32091", "longitude": -82.1230725, "mh_spaces": 7, "park_city": "Starke", "park_name": "Durrance Mobile Home Park", "park_type": "Lodging Park", "rv_spaces": 0, "park_address": "SR 16 and 177th Street", "billing_spaces": 7, "geocode_status": "OK"}}, {"type": "Feature", "geometry": {"type": "Point", "coordinates": [-82.1051539, 29.9345174]}, "properties": {"id": 1603, "county": "Bradford", "latitude": 29.9345174, "park_zip": "32091", "longitude": -82.1051539, "mh_spaces": 12, "park_city": "Starke", "park_name": "Southside Mobile Home Park", "park_type": "Mobile Home Park", "rv_spaces": 0, "park_address": "1003 S Water Street", "billing_spaces": 12, "geocode_status": "OK"}}, {"type": "Feature", "geometry": {"type": "Point", "coordinates": [-82.1363052, 29.9748088]}, "properties": {"id": 1604, "county": "Bradford", "latitude": 29.9748088, "park_zip": "32091", "longitude": -82.1363052, "mh_spaces": 25, "park_city": "Starke", "park_name": "Canon Home Trailer Park", "park_type": "Lodging Park", "rv_spaces": 0, "park_address": "NW 177th Place", "billing_spaces": 25, "geocode_status": "OK"}}, {"type": "Feature", "geometry": {"type": "Point", "coordinates": [-82.0784288, 29.9276376]}, "properties": {"id": 1605, "county": "Bradford", "latitude": 29.9276376, "park_zip": "32091", "longitude": -82.0784288, "mh_spaces": 5, "park_city": "Starke", "park_name": "E Zee's Mobile Home Park II", "park_type": "Lodging Park", "rv_spaces": 0, "park_address": "SE 20th Place", "billing_spaces": 5, "geocode_status": "OK"}}, {"type": "Feature", "geometry": {"type": "Point", "coordinates": [-82.1059505, 29.9703679]}, "properties": {"id": 1606, "county": "Bradford", "latitude": 29.9703679, "park_zip": "32091", "longitude": -82.1059505, "mh_spaces": 9, "park_city": "Starke", "park_name": "Quiet Acres Mobile Home Park", "park_type": "Lodging Park", "rv_spaces": 0, "park_address": "NW 174th Street", "billing_spaces": 9, "geocode_status": "OK"}}, {"type": "Feature", "geometry": {"type": "Point", "coordinates": [-82.0927267, 29.9890112]}, "properties": {"id": 1607, "county": "Bradford", "latitude": 29.9890112, "park_zip": "32091", "longitude": -82.0927267, "mh_spaces": 5, "park_city": "Starke", "park_name": "Canon Griffis Loop Trailer Park", "park_type": "Lodging Park", "rv_spaces": 0, "park_address": "Griffis Loop", "billing_spaces": 5, "geocode_status": "OK"}}, {"type": "Feature", "geometry": {"type": "Point", "coordinates": [-82.0676832, 29.8352118]}, "properties": {"id": 1608, "county": "Bradford", "latitude": 29.8352118, "park_zip": "32091", "longitude": -82.0676832, "mh_spaces": 6, "park_city": "Starke", "park_name": "Awag", "park_type": "Lodging Park", "rv_spaces": 0, "park_address": "SE 81st Street", "billing_spaces": 6, "geocode_status": "OK"}}, {"type": "Feature", "geometry": {"type": "Point", "coordinates": [-82.0632924, 29.8032107]}, "properties": {"id": 1609, "county": "Bradford", "latitude": 29.8032107, "park_zip": "32656", "longitude": -82.0632924, "mh_spaces": 0, "park_city": "Keystone Heights", "park_name": "Keystone Heights RV Resort", "park_type": "Recreational Vehicle Park", "rv_spaces": 705, "park_address": "1177 SE Keystone Avenue", "billing_spaces": 705, "geocode_status": "OK"}}, {"type": "Feature", "geometry": {"type": "Point", "coordinates": [-82.0813734, 29.9006377]}, "properties": {"id": 1610, "county": "Bradford", "latitude": 29.9006377, "park_zip": "32091", "longitude": -82.0813734, "mh_spaces": 6, "park_city": "Starke", "park_name": "Bedford Falls Trailer Park", "park_type": "Mobile Home Park", "rv_spaces": 0, "park_address": "2161 SE 126 Way", "billing_spaces": 6, "geocode_status": "OK"}}, {"type": "Feature", "geometry": {"type": "Point", "coordinates": [-82.3149942, 29.8864464]}, "properties": {"id": 1611, "county": "Bradford", "latitude": 29.8864464, "park_zip": "32622", "longitude": -82.3149942, "mh_spaces": 20, "park_city": "Brooker", "park_name": "T. J. Mann Trailer Park", "park_type": "Mobile Home Park", "rv_spaces": 0, "park_address": "11766 SW 162nd Avenue", "billing_spaces": 20, "geocode_status": "OK"}}, {"type": "Feature", "geometry": {"type": "Point", "coordinates": [-82.081099, 29.9328871]}, "properties": {"id": 1612, "county": "Bradford", "latitude": 29.9328871, "park_zip": "32091", "longitude": -82.081099, "mh_spaces": 55, "park_city": "Starke", "park_name": "Shady Creek MHC LLC", "park_type": "Mobile Home Park", "rv_spaces": 0, "park_address": "2180 SE County Road 230 A", "billing_spaces": 55, "geocode_status": "OK"}}, {"type": "Feature", "geometry": {"type": "Point", "coordinates": [-82.1206969, 29.9323737]}, "properties": {"id": 1613, "county": "Bradford", "latitude": 29.9323737, "park_zip": "32091", "longitude": -82.1206969, "mh_spaces": 24, "park_city": "Starke", "park_name": "Starke RV LLC", "park_type": "Recreational Vehicle Park", "rv_spaces": 107, "park_address": "1475 S Walnut Street", "billing_spaces": 139, "geocode_status": "OK"}}, {"type": "Feature", "geometry": {"type": "Point", "coordinates": [-80.6458715, 28.0667518]}, "properties": {"id": 1614, "county": "Brevard", "latitude": 28.0667518, "park_zip": "32904", "longitude": -80.6458715, "mh_spaces": 204, "park_city": "West Melbourne", "park_name": "Palm Lake Estates", "park_type": "Mobile Home Park", "rv_spaces": 0, "park_address": "1000 Fell Road", "billing_spaces": 204, "geocode_status": "OK"}}, {"type": "Feature", "geometry": {"type": "Point", "coordinates": [-80.494869, 27.8659841]}, "properties": {"id": 1615, "county": "Brevard", "latitude": 27.8659841, "park_zip": "32976", "longitude": -80.494869, "mh_spaces": 22, "park_city": "Micco", "park_name": "Breezeway Trailer Park,  Inc.", "park_type": "Mobile Home Park", "rv_spaces": 20, "park_address": "8860 US 1 Highway", "billing_spaces": 42, "geocode_status": "OK"}}, {"type": "Feature", "geometry": {"type": "Point", "coordinates": [-80.6503262, 28.1715372]}, "properties": {"id": 1616, "county": "Brevard", "latitude": 28.1715372, "park_zip": "32935", "longitude": -80.6503262, "mh_spaces": 29, "park_city": "Melbourne", "park_name": "Broadview Mhpk", "park_type": "Mobile Home Park", "rv_spaces": 3, "park_address": "1701 Post Road", "billing_spaces": 32, "geocode_status": "OK"}}, {"type": "Feature", "geometry": {"type": "Point", "coordinates": [-80.5629412, 28.0005184]}, "properties": {"id": 1617, "county": "Brevard", "latitude": 28.0005184, "park_zip": "32950", "longitude": -80.5629412, "mh_spaces": 27, "park_city": "Malabar", "park_name": "Camelot RV Park  Inc", "park_type": "Recreational Vehicle Park", "rv_spaces": 150, "park_address": "1600 Highway 1", "billing_spaces": 177, "geocode_status": "OK"}}, {"type": "Feature", "geometry": {"type": "Point", "coordinates": [-80.7039677, 28.1205234]}, "properties": {"id": 1618, "county": "Brevard", "latitude": 28.1205234, "park_zip": "32934", "longitude": -80.7039677, "mh_spaces": 100, "park_city": "Melbourne", "park_name": "Groveland MHPK", "park_type": "Mobile Home Park", "rv_spaces": 0, "park_address": "4651 Eau Gallie Boulevard W", "billing_spaces": 100, "geocode_status": "OK"}}, {"type": "Feature", "geometry": {"type": "Point", "coordinates": [-80.587691, 28.0437779]}, "properties": {"id": 1619, "county": "Brevard", "latitude": 28.0437779, "park_zip": "32905", "longitude": -80.587691, "mh_spaces": 11, "park_city": "Palm Bay", "park_name": "Hiawatha Mobile Home Park", "park_type": "Mobile Home Park", "rv_spaces": 0, "park_address": "2800 Hiawatha Avenue NE", "billing_spaces": 11, "geocode_status": "OK"}}, {"type": "Feature", "geometry": {"type": "Point", "coordinates": [-80.6922446, 28.1327089]}, "properties": {"id": 1620, "county": "Brevard", "latitude": 28.1327089, "park_zip": "32934", "longitude": -80.6922446, "mh_spaces": 23, "park_city": "Melbourne", "park_name": "Hibiscus Mobile Haven", "park_type": "Mobile Home Park", "rv_spaces": 14, "park_address": "4115 Aurora Road", "billing_spaces": 37, "geocode_status": "OK"}}, {"type": "Feature", "geometry": {"type": "Point", "coordinates": [-80.6372008, 28.1491464]}, "properties": {"id": 1621, "county": "Brevard", "latitude": 28.1491464, "park_zip": "32935", "longitude": -80.6372008, "mh_spaces": 54, "park_city": "Melbourne", "park_name": "Hollandale Mobile Home Park", "park_type": "Mobile Home Park", "rv_spaces": 0, "park_address": "2600 Pineapple Avenue", "billing_spaces": 54, "geocode_status": "OK"}}, {"type": "Feature", "geometry": {"type": "Point", "coordinates": [-80.5091107, 27.8927467]}, "properties": {"id": 1622, "county": "Brevard", "latitude": 27.8927467, "park_zip": "32976", "longitude": -80.5091107, "mh_spaces": 13, "park_city": "Micco", "park_name": "Indian River Shores Properties,LLC", "park_type": "Recreational Vehicle Park", "rv_spaces": 35, "park_address": "7400 US 1, Lot 12", "billing_spaces": 48, "geocode_status": "OK"}}, {"type": "Feature", "geometry": {"type": "Point", "coordinates": [-80.6167586, 28.0611076]}, "properties": {"id": 1623, "county": "Brevard", "latitude": 28.0611076, "park_zip": "32901", "longitude": -80.6167586, "mh_spaces": 349, "park_city": "Melbourne", "park_name": "Lakewood Village MH Community", "park_type": "Mobile Home Park", "rv_spaces": 0, "park_address": "3171 Hanson Avenue", "billing_spaces": 349, "geocode_status": "OK"}}, {"type": "Feature", "geometry": {"type": "Point", "coordinates": [-80.7020917, 28.1100988]}, "properties": {"id": 1624, "county": "Brevard", "latitude": 28.1100988, "park_zip": "32934", "longitude": -80.7020917, "mh_spaces": 639, "park_city": "Melbourne", "park_name": "Lamplighter Mobile Home Park", "park_type": "Mobile Home Park", "rv_spaces": 0, "park_address": "500 Lantern Boulevard", "billing_spaces": 639, "geocode_status": "OK"}}, {"type": "Feature", "geometry": {"type": "Point", "coordinates": [-80.6926779, 28.1094539]}, "properties": {"id": 1625, "county": "Brevard", "latitude": 28.1094539, "park_zip": "32934", "longitude": -80.6926779, "mh_spaces": 0, "park_city": "Melbourne", "park_name": "Land Yacht Hrbr of Melbourne", "park_type": "Recreational Vehicle Park", "rv_spaces": 304, "park_address": "201 N John Rodes Boulevard", "billing_spaces": 304, "geocode_status": "OK"}}, {"type": "Feature", "geometry": {"type": "Point", "coordinates": [-80.657655, 28.1362763]}, "properties": {"id": 1626, "county": "Brevard", "latitude": 28.1362763, "park_zip": "32935", "longitude": -80.657655, "mh_spaces": 59, "park_city": "Melbourne", "park_name": "Lantern Village", "park_type": "Mobile Home Park", "rv_spaces": 0, "park_address": "2190 Aurora Road", "billing_spaces": 59, "geocode_status": "OK"}}, {"type": "Feature", "geometry": {"type": "Point", "coordinates": [-80.4695013, 27.8732955]},